~VERSION	INFORMATION									
	VERS.	2	:	CWLS	LOG	ASCII	STANDARD	-	VERSION	2
	WRAP.	NO	:	ONE	LINE	PER	DEPTH	STEP		
#										
~Well	Information	Section								
#MNEM	.UNIT	DATA	DESCRIPTION							
#-----	-----	--------	--------------							
	STRT	.M	30	:	START	DEPTH				
	STOP	.M	2140	:	END	DEPTH				
	STEP	.M	0.15	:	INCREMENT	DEPTH				
	NULL	.	-999.25	:	NULL	VALUE				
	COMP	.	:							
	WELL	.	F03-2	:	WELL	NAME				
	EKB	.M	30	:	KELLY	BUSHING	ELEVATION			
	EGL	.M	0	:	GROUND	LEVEL	ELEVATION			
	EPD	.M	0	:	PERMANENT	DATUM	ELEVATION			
	FLD	.	:							
	LOC	.	X	=	619101	Y	=	6089491.0000:	WELL	LOCATION
	PROV	.	:							
	SRVC	.	:							
	PROV	.	:							
	DATE	.	:							
	API	.	:							
#										
~Curve	Information	Section								
#MNEM	.UNIT	Curve	#DESCRIPTION							
#-----	-----	----	--------------							
	DEPTH	.M	:	1	DEPTH					
	RHOB	.kg/m3	:	2	Density					
	DT	.us/m	:	3	Sonic					
	GR	.API	:	4	Gamma	Ray				
	AI	.(m/s)*(kg/m3)	:	5	P-Impedance					
	AI_rel	.(m/s)*(kg/m3)	:	6	P-Impedance_rel					
	DTS	.us/m	:	3	Shear	Delta	Time			
	PHIE	.fraction	:	7	Porositykouh					
~A	(ASCII	LOG	DATA)							
# ...
	1108.2001	2194.1853	442.3656	92.8876	4960651.5	-166045.6875	884.7312	884.73	2.072532865	
	1108.3501	2207.9675	434.5404	89.5168	5081676.5	-166045.6875	869.0808	869.08	1.954271989	
	1108.5	2206.4053	435.4409	89.2954	5067410.5	-166045.6875	870.8818	870.88	2.080316084	
	1108.65	2197.7759	440.3334	90.3487	4991303	-166045.6875	880.6668	880.67	2.025175077	
	1108.8	2200.7656	438.6428	87.0861	5017513	-166045.6875	877.2856	877.29	2.002663116	
	1108.9501	2200.8271	438.6187	84.742	5017803	-166045.6875	877.2374	877.24	1.991561534	
	1109.1001	2192.0513	443.6029	85.3234	4941740	-166045.6875	887.2058	887.21	2.043979692	
	1109.25	2182.6526	448.9431	88.0083	4861982	-166045.6875	897.8862	897.89	2.075298341	
	1109.4	2165.5762	458.6497	92.6132	4723203.5	-166045.6875	917.2994	917.3	1.930487068	
	1109.55	2146.4829	469.4902	96.8321	4572370	-166045.6875	938.9804	938.98	1.923658444	
	1109.7001	2140.7522	472.7441	100.0214	4528366	-166045.6875	945.4882	945.49	2.049863933	
	1109.8501	2149.3225	467.8726	100.5588	4594413.5	-166045.6875	935.7452	935.75	2.063117846	
	1110	2161.2532	461.0699	100.775	4687611.5	-150343.5938	922.1398	922.14	1.969901129	
	1110.15	2168.939	456.7025	98.4655	4749297	-104992.9844	913.405	913.41	2.086750438	
	1110.3	2173.5349	454.116	91.3897	4786299	-70105.7734	908.232	908.23	1.918354323	
	1110.4501	2170.8982	455.6233	90.3314	4764764.5	-70105.7734	911.2466	911.25	1.987227575	
	1110.6001	2168.29	457.0954	94.0609	4743643.5	-70105.7734	914.1908	914.19	1.994374568	
	1110.75	2173.3523	454.2255	95.5415	4784953.5	-70105.7734	908.451	908.45	1.922441652	
	1110.9	2184.7419	447.7652	94.2806	4879813	-70105.7734	895.5304	895.53	2.001171709	
	1111.05	2201.9055	438.0072	92.2457	5028203	-70105.7734	876.0144	876.01	1.900235413	
	1111.2001	2214.0969	431.0688	90.2152	5136362.5	-70105.7734	862.1376	862.14	1.903357602	
	1111.3501	2204.5449	436.5173	92.2519	5051310	-70105.7734	873.0346	873.03	2.049421158	
	1111.5	2190.458	444.5092	95.3634	4927815	-70105.7734	889.0184	889.02	1.963483342	
	1111.65	2193.0481	443.0303	96.4096	4950226	-70105.7734	886.0606	886.06	2.047493938	
	1111.8	2200.4563	438.796	95.2245	5014900	-70105.7734	877.592	877.59	2.009218949	
	1111.9501	2213.1956	431.5818	94.4784	5129815.5	-70105.7734	863.1636	863.16	2.095126895	
	1112.1001	2237.6074	417.733	91.5746	5357068	-70105.7734	835.466	835.47	2.064768893	
	1112.25	2247.1282	412.2999	94.061	5450473.5	-70105.7734	824.5998	824.6	1.959669703	
	1112.4	2236.3857	418.4111	93.5531	5345278.5	-70105.7734	836.8222	836.82	1.944365348	
	1112.55	2223.5083	425.7478	91.1177	5222928.5	-70105.7734	851.4956	851.5	1.973268066	
	1112.7001	2205.5762	435.9167	92.7112	5062118.5	-70105.7734	871.8334	871.83	2.034871961	
	1112.8501	2168.7114	456.8464	93.977	4747572	-70105.7734	913.6928	913.69	1.963448246	
	1113	2153.6973	465.3888	94.9908	4627866.5	-70105.7734	930.7776	930.78	1.91767243	
	1113.15	2165.4319	458.733	97.4306	4720850	-70105.7734	917.466	917.47	1.997268144	
	1113.3	2185.6487	447.2292	96.7295	4887677	-70105.7734	894.4584	894.46	2.094970576	
	1113.4501	2209.7371	433.5406	93.1593	5097201	-70105.7734	867.0812	867.08	1.915603356	
	1113.6001	2224.2129	425.3195	93.5893	5229627	-70105.7734	850.639	850.64	2.09919691	
	1113.75	2210.9814	432.8169	96.9423	5108650	-70105.7734	865.6338	865.63	1.989051814	
	1113.9	2187.071	446.4458	99.5043	4899172.5	-70105.7734	892.8916	892.89	1.917089122	
	1114.05	2153.4055	465.5237	93.8622	4625770	-70105.7734	931.0474	931.05	1.980425987	
	1114.2001	2153.8032	465.2965	94.0215	4628883.5	-70105.7734	930.593	930.59	2.04830708	
	1114.3501	2157.5999	463.1345	95.82	4658689.5	-70105.7734	926.269	926.27	2.077882271	
	1114.5	2164.5613	459.2307	92.6531	4713459.5	-70105.7734	918.4614	918.46	2.082768941	
	1114.65	2176.1064	452.6579	90.5504	4807443.5	23309.1621	905.3158	905.32	2.027268146	
	1114.8	2178.8677	451.0644	90.3569	4830506.5	49188.4648	902.1288	902.13	1.902277166	
	1114.9501	2181.24	449.7319	85.7303	4850094	50453.5859	899.4638	899.46	2.026932277	
	1115.1001	2172.4734	454.7071	82.9429	4777814	50453.5859	909.4142	909.41	2.017873877	
	1115.25	2172.1504	454.9081	85.7202	4774921.5	50453.5859	909.8162	909.82	1.903269248	
	1115.4	2175.6589	452.9181	83.3982	4803663.5	50453.5859	905.8362	905.84	2.065938665	
	1115.55	2179.4795	450.7455	85.1657	4835296.5	50453.5859	901.491	901.49	2.024887311	
	1115.7001	2182.9019	448.7755	85.1827	4864145.5	50453.5859	897.551	897.55	1.933709442	
	1115.8501	2176.844	452.2038	86.769	4813941	50453.5859	904.4076	904.41	2.005336909	
	1116	2176.9136	452.1709	88.7299	4814364	50453.5859	904.3418	904.34	1.994268678	
	1116.15	2180.0222	450.4042	90.1383	4840165.5	50453.5859	900.8084	900.81	2.036638099	
	1116.3	2176.0576	452.6892	87.9981	4807019.5	50453.5859	905.3784	905.38	2.049923769	
	1116.4501	2169.6155	456.3543	88.5339	4754314	50453.5859	912.7086	912.71	1.923200185	
	1116.6001	2172.969	454.4322	88.4996	4781799.5	50453.5859	908.8644	908.86	1.924694761	
	1116.75	2176.9429	452.1819	88.913	4814329.5	50453.5859	904.3638	904.36	2.025658583	
	1116.9	2180.2705	450.2724	82.437	4842139	50453.5859	900.5448	900.54	1.978089215	
	1117.05	2179.6445	450.6447	77.6461	4836736	50453.5859	901.2894	901.29	2.028595694	
	1117.2001	2173.3782	454.1979	78.4699	4785233	50453.5859	908.3958	908.4	1.926723621	
	1117.3501	2171.8523	455.0694	79.8962	4772578.5	50453.5859	910.1388	910.14	1.959515024	
	1117.5	2178.8381	451.1116	79.916	4830160	50453.5859	902.2232	902.22	1.961587762	
	1117.65	2193.3909	442.8257	77.2925	4953924.5	50453.5859	885.6514	885.65	1.932472585	
	1117.8	2207.7075	434.6783	73.7221	5079414	50453.5859	869.3566	869.36	1.991530283	
	1117.9501	2216.2812	429.8094	70.8846	5156530	50453.5859	859.6188	859.62	1.901642334	
	1118.1001	2216.6785	429.6043	70.0681	5159845.5	50453.5859	859.2086	859.21	1.928221412	
	1118.25	2213.4839	431.4174	68.3485	5130755.5	50453.5859	862.8348	862.83	1.948339002	
	1118.4	2208.1301	434.4664	68.1743	5082539	50453.5859	868.9328	868.93	2.055109694	
	1118.55	2207.5605	434.7916	70.7733	5077343.5	50453.5859	869.5832	869.58	2.090588608	
	1118.7001	2215.418	430.3235	70.3472	5148615.5	50453.5859	860.647	860.65	2.05450411	
	1118.8501	2222.1663	426.5001	67.3765	5210268	50453.5859	853.0002	853	1.911742098	
	1119	2223.4502	425.7616	65.895	5222289	52566.1562	851.5232	851.52	2.088802834	
	1119.15	2218.9668	428.2915	64.2195	5181204.5	58693.0703	856.583	856.58	2.081253727	
	1119.3	2208.2883	434.3642	64.4848	5084473	62928.9375	868.7284	868.73	2.077000249	
	1119.4501	2194.3896	442.2727	65.3976	4962238.5	62928.9375	884.5454	884.55	1.972404564	
	1119.6001	2186.9043	446.5188	64.5002	4897682.5	62928.9375	893.0376	893.04	1.972050576	
	1119.75	2192.2542	443.4654	66.1315	4943764.5	62928.9375	886.9308	886.93	1.908916542	
	1119.9	2202.5903	437.6061	66.1495	5033562.5	62928.9375	875.2122	875.21	1.993628489	
	1120.05	2208.8936	434.0343	62.9046	5089215	62928.9375	868.0686	868.07	2.095611329	
	1120.2001	2209.2	433.8334	62.0027	5092278	62928.9375	867.6668	867.67	1.923259467	
	1120.3501	2207.2175	434.9598	63.0139	5074613.5	62928.9375	869.9196	869.92	1.938077294	
	1120.5	2192.8074	443.1498	62.805	4950730.5	62928.9375	886.2996	886.3	2.090908532	
	1120.65	2174.5129	453.5485	64.4037	4794610.5	62928.9375	907.097	907.1	2.019988254	
	1120.8	2184.3184	447.9988	65.6578	4876118	62928.9375	895.9976	896	1.930156873	
	1120.9501	2195.5735	441.595	66.9548	4972042.5	62928.9375	883.19	883.19	1.941138942	
	1121.1001	2202.2878	437.7922	69.5525	5030507.5	62928.9375	875.5844	875.58	1.933795172	
	1121.25	2203.3464	437.1683	70.5928	5040288	62928.9375	874.3366	874.34	1.996185826	
	1121.4	2197.4231	440.5316	69.1046	4988244.5	62928.9375	881.0632	881.06	2.002043674	
	1121.55	2200.0764	439.0256	70.9224	5011669	62928.9375	878.0512	878.05	2.047804801	
	1121.7001	2190.8547	444.2655	72.0208	4931534	62928.9375	888.531	888.53	1.99225718	
	1121.8501	2198.9883	439.6351	67.4331	5001976	62928.9375	879.2702	879.27	1.929654312	
	1122	2204.7102	436.4011	65.271	5052079	62928.9375	872.8022	872.8	2.070742543	
	1122.15	2198.4321	439.9766	66.1801	4996876.5	62928.9375	879.9532	879.95	2.071503267	
