~VERSION	INFORMATION									
	VERS.	2	:	CWLS	LOG	ASCII	STANDARD	-	VERSION	2
	WRAP.	NO	:	ONE	LINE	PER	DEPTH	STEP		
#										
~Well	Information	Section								
#MNEM	.UNIT	DATA	DESCRIPTION							
#-----	-----	--------	--------------							
	STRT	.M	30	:	START	DEPTH				
	STOP	.M	2140	:	END	DEPTH				
	STEP	.M	0.15	:	INCREMENT	DEPTH				
	NULL	.	-999.25	:	NULL	VALUE				
	COMP	.	:							
	WELL	.	F03-2	:	WELL	NAME				
	EKB	.M	30	:	KELLY	BUSHING	ELEVATION			
	EGL	.M	0	:	GROUND	LEVEL	ELEVATION			
	EPD	.M	0	:	PERMANENT	DATUM	ELEVATION			
	FLD	.	:							
	LOC	.	X	=	619101	Y	=	6089491.0000:	WELL	LOCATION
	PROV	.	:							
	SRVC	.	:							
	PROV	.	:							
	DATE	.	:							
	API	.	:							
#										
~Curve	Information	Section								
#MNEM	.UNIT	Curve	#DESCRIPTION							
#-----	-----	----	--------------							
	DEPTH	.M	:	1	DEPTH					
	RHOB	.kg/m3	:	2	Density					
	DT	.us/m	:	3	Sonic					
	GR	.API	:	4	Gamma	Ray				
	AI	.(m/s)*(kg/m3)	:	5	P-Impedance					
	AI_rel	.(m/s)*(kg/m3)	:	6	P-Impedance_rel					
	DTS	.us/m	:	3	Shear	Delta	Time			
	PHIE	.fraction	:	7	Porositykouh					
~A	(ASCII	LOG	DATA)							
# ...
	1009.05	2224.8423	424.9885	69.7161	5235101	91782.8359	849.977	849.98	1.913308799	
	1009.2	2233.1018	420.2621	71.2126	5313599	91782.8359	840.5242	840.52	1.965491649	
	1009.35	2238.0322	417.4458	67.4191	5361261.5	91782.8359	834.8916	834.89	2.066537548	
	1009.5001	2228.3	422.9951	68.72	5267911	91782.8359	845.9902	845.99	1.953955818	
	1009.65	2239.4526	416.684	73.2107	5374484.5	91782.8359	833.368	833.37	1.96260029	
	1009.8	2231.1301	421.3854	74.964	5294774.5	91782.8359	842.7708	842.77	2.058785548	
	1009.95	2219.9546	427.7587	71.8992	5189798.5	91782.8359	855.5174	855.52	2.098449746	
	1010.1	2223.167	425.9214	64.2014	5219675.5	91782.8359	851.8428	851.84	2.030849743	
	1010.2501	2228.9604	422.6094	63.72	5274311	91782.8359	845.2188	845.22	1.976300124	
	1010.4	2220.2373	427.5637	63.6474	5192871	91782.8359	855.1274	855.13	2.04416278	
	1010.55	2226.1792	424.2109	63.2201	5247882	91782.8359	848.4218	848.42	1.906280669	
	1010.7	2226.5598	423.9663	60.8019	5251738	91782.8359	847.9326	847.93	2.073621159	
	1010.85	2220.3936	427.4721	61.9249	5194317.5	95201.1641	854.9442	854.94	1.921293859	
	1011.0001	2233.5452	420.0295	66.5646	5318049	123871.3984	840.059	840.06	2.02138455	
	1011.15	2229.0703	422.5681	69.0554	5275187.5	128948.6641	845.1362	845.14	1.955104329	
	1011.3	2231.8311	420.9918	66.1553	5301417.5	128948.6641	841.9836	841.98	2.022124134	
	1011.45	2236.5608	418.292	66.3142	5346935	128948.6641	836.584	836.58	2.028913668	
	1011.6	2229.5408	422.3092	65.0886	5279636.5	128948.6641	844.6184	844.62	1.989854176	
	1011.7501	2232.5916	420.5813	66.3441	5308456.5	128948.6641	841.1626	841.16	1.979236669	
	1011.9	2241.8926	415.2676	65.8119	5398939.5	128948.6641	830.5352	830.54	1.995397385	
	1012.05	2251.6885	409.7157	64.0736	5495991	128948.6641	819.4314	819.43	1.956449401	
	1012.2	2252.355	409.3442	62.3093	5502370	128948.6641	818.6884	818.69	1.995757594	
	1012.35	2249.0093	411.2541	63.1223	5468702.5	128948.6641	822.5082	822.51	2.004625278	
	1012.5001	2246.1821	412.8394	66.2224	5440831	128948.6641	825.6788	825.68	2.089233584	
	1012.65	2236.728	418.2246	65.7457	5348650	128948.6641	836.4492	836.45	1.925260056	
	1012.8	2237.5618	417.7584	65.7206	5356301	128948.6641	835.5168	835.52	2.016786693	
	1012.95	2236.7788	418.2011	66.9851	5348664	128948.6641	836.4022	836.4	1.903322479	
	1013.1	2231.2039	421.3542	69.6487	5295416.5	128948.6641	842.7084	842.71	2.047608187	
	1013.2501	2233.1882	420.2176	71.7184	5314507.5	128948.6641	840.4352	840.44	1.956466697	
	1013.4	2232.6721	420.4991	69.6898	5309670	128948.6641	840.9982	841	1.915151366	
	1013.55	2239.2341	416.7651	67.9988	5373658.5	128948.6641	833.5302	833.53	2.055354391	
	1013.7	2252.3523	409.3167	66.1179	5503184	128948.6641	818.6334	818.63	1.965142721	
	1013.85	2252.1514	409.4387	63.6977	5500924	128948.6641	818.8774	818.88	2.082030143	
	1014.0001	2252.0256	409.5237	64.3209	5499377.5	128948.6641	819.0474	819.05	2.019088911	
	1014.15	2255.7971	407.3971	65.1187	5537098	128948.6641	814.7942	814.79	2.0541904	
	1014.3	2249.925	410.7269	64.68	5478365	128948.6641	821.4538	821.45	2.005359334	
	1014.45	2239.2976	416.7562	65.6837	5373492	128948.6641	833.5124	833.51	2.079914313	
	1014.6	2224.4834	425.187	67.2577	5233131.5	128948.6641	850.374	850.37	1.991871838	
	1014.7501	2213.3342	431.5261	69.0104	5129086.5	128948.6641	863.0522	863.05	2.001848169	
	1014.9	2214.1404	431.0509	71.1147	5136618	128948.6641	862.1018	862.1	1.978269455	
	1015.05	2216.655	429.6213	71.7566	5159601.5	128948.6641	859.2426	859.24	1.971368974	
	1015.2	2226.9216	423.7928	71.8921	5255941.5	128948.6641	847.5856	847.59	1.911357691	
	1015.35	2238.7241	417.0715	70.4801	5367722.5	128948.6641	834.143	834.14	1.931370068	
	1015.5001	2228.325	422.9971	68.2369	5270232	128948.6641	845.9942	845.99	2.039642836	
	1015.65	2211.9871	432.2811	71.5296	5117053.5	118327.3516	864.5622	864.56	1.999238655	
	1015.8	2217.0688	429.3985	74.9608	5163344	94914.9297	858.797	858.8	2.06484148	
	1015.95	2225.3953	424.67	76.7918	5240604	88115.3125	849.34	849.34	1.93526215	
	1016.1	2233.7107	419.9301	75.3262	5319282	88115.3125	839.8602	839.86	2.071035099	
	1016.2501	2235.0361	419.1841	74.132	5331925.5	88115.3125	838.3682	838.37	2.072575244	
	1016.4	2224.2639	425.3045	77.8055	5231771	88115.3125	850.609	850.61	2.020738985	
	1016.55	2203.5789	437.0333	79.2048	5042133.5	88115.3125	874.0666	874.07	1.944900497	
	1016.7	2207.738	434.6696	77.1438	5079533.5	88115.3125	869.3392	869.34	2.057574811	
	1016.85	2219.8408	427.8023	75.2319	5189043	88115.3125	855.6046	855.6	2.098993879	
	1017.0001	2226.2527	424.1666	72.4921	5248577.5	88115.3125	848.3332	848.33	1.915295468	
	1017.15	2229.4329	422.3506	71.554	5278643	88115.3125	844.7012	844.7	2.062852874	
	1017.3	2224.1169	425.3741	75.0587	5229240.5	88115.3125	850.7482	850.75	1.931351865	
	1017.45	2210.2754	433.2197	79.413	5102171	88115.3125	866.4394	866.44	2.022750577	
	1017.6	2218.814	428.3786	82.8144	5179609	88115.3125	856.7572	856.76	1.96669134	
	1017.7501	2214.9265	430.6117	84.4417	5143747	88115.3125	861.2234	861.22	2.069926118	
	1017.9	2222.7341	426.1531	85.654	5216026	88115.3125	852.3062	852.31	1.908306896	
	1018.05	2234.6812	419.3791	84.2815	5328547	88115.3125	838.7582	838.76	2.071362216	
	1018.2	2233.177	420.2148	79.6542	5314625	88115.3125	840.4296	840.43	2.077664111	
	1018.35	2218.2349	428.7033	80.7422	5174299	88115.3125	857.4066	857.41	2.04623504	
	1018.5001	2222.3623	426.3578	79.3399	5212488.5	88115.3125	852.7156	852.72	2.010106555	
	1018.65	2231.5281	421.1934	85.0187	5298121	88115.3125	842.3868	842.39	1.985653873	
	1018.8	2225.4302	424.6438	85.99	5240713	88115.3125	849.2876	849.29	2.061763385	
	1018.95	2234.7	419.3448	81	5329027	88115.3125	838.6896	838.69	1.941530554	
	1019.1	2243.3	414.4888	83.62	5412208.5	88115.3125	828.9776	828.98	2.003280526	
	1019.2501	2237.2234	417.9123	84.257	5353342	88115.3125	835.8246	835.82	1.91835757	
	1019.4	2229.7505	422.1724	80.6049	5281635	88115.3125	844.3448	844.34	1.925246891	
	1019.55	2222.9678	426.0366	79.041	5217817	88115.3125	852.0732	852.07	2.00164678	
	1019.7	2210.2756	433.2298	79.5295	5101983	88115.3125	866.4596	866.46	1.921985837	
	1019.85	2209.584	433.6243	80.6191	5095618	88115.3125	867.2486	867.25	1.975210676	
	1020.0001	2223.0149	426.0274	80.5389	5218250.5	88115.3125	852.0548	852.05	1.943636302	
	1020.15	2223.7905	425.5426	80.6264	5225777	88115.3125	851.0852	851.09	2.064657125	
	1020.3	2219.0183	428.2943	75.0914	5181102	88115.3125	856.5886	856.59	1.93385918	
	1020.45	2225.8105	424.4257	74.6667	5244409	1532.7869	848.8514	848.85	1.952179451	
	1020.6	2236.1731	418.5236	75.2609	5343207	-20895.1367	837.0472	837.05	1.946220421	
	1020.7501	2227.9758	423.1775	76.5739	5265150	-22334.6719	846.355	846.36	2.097983449	
	1020.9	2229.3511	422.41	78.6236	5277733.5	-22334.6719	844.82	844.82	2.080738778	
	1021.05	2232.7964	420.455	79.6086	5310452	-22334.6719	840.91	840.91	2.013243851	
	1021.2	2219.4185	428.0323	79.8528	5185881.5	-22334.6719	856.0646	856.06	2.037400788	
	1021.35	2212.8682	431.755	79.4316	5125309.5	-22334.6719	863.51	863.51	1.956894334	
	1021.5001	2216.0984	429.9352	79.9046	5154561.5	-22334.6719	859.8704	859.87	1.980836059	
	1021.65	2218.7356	428.4492	81.2467	5178534.5	-22334.6719	856.8984	856.9	2.003665215	
	1021.8	2218.7051	428.4743	78.0993	5178153	-22334.6719	856.9486	856.95	2.052166824	
	1021.95	2236.3928	418.4254	78.1527	5346612	-22334.6719	836.8508	836.85	2.073914531	
	1022.1	2234.0286	419.7635	80.4149	5322760	-22334.6719	839.527	839.53	1.900716874	
	1022.2501	2229.2	422.4983	81.675	5276233.5	-22334.6719	844.9966	845	1.989380493	
	1022.4	2233.0828	420.2832	78.5749	5313387.5	-22334.6719	840.5664	840.57	1.966979689	
	1022.55	2214.4485	430.857	78.1318	5142742.5	-22334.6719	861.714	861.71	2.050106228	
	1022.7	2205.5371	435.9196	77.8491	5059589.5	-22334.6719	871.8392	871.84	1.969213138	
	1022.85	2214.1809	431.0122	76.2859	5137499.5	-22334.6719	862.0244	862.02	2.057300813	
	1023.0001	2221.981	426.5819	78.0596	5208910.5	-22334.6719	853.1638	853.16	1.965143632	
	1023.15	2231.0767	421.4322	82.419	5294454	-22334.6719	842.8644	842.86	2.027000009	
