~VERSION	INFORMATION									
	VERS.	2	:	CWLS	LOG	ASCII	STANDARD	-	VERSION	2
	WRAP.	NO	:	ONE	LINE	PER	DEPTH	STEP		
#										
~Well	Information	Section								
#MNEM	.UNIT	DATA	DESCRIPTION							
#-----	-----	--------	--------------							
	STRT	.M	30	:	START	DEPTH				
	STOP	.M	2140	:	END	DEPTH				
	STEP	.M	0.15	:	INCREMENT	DEPTH				
	NULL	.	-999.25	:	NULL	VALUE				
	COMP	.	:							
	WELL	.	F03-2	:	WELL	NAME				
	EKB	.M	30	:	KELLY	BUSHING	ELEVATION			
	EGL	.M	0	:	GROUND	LEVEL	ELEVATION			
	EPD	.M	0	:	PERMANENT	DATUM	ELEVATION			
	FLD	.	:							
	LOC	.	X	=	619101	Y	=	6089491.0000:	WELL	LOCATION
	PROV	.	:							
	SRVC	.	:							
	PROV	.	:							
	DATE	.	:							
	API	.	:							
#										
~Curve	Information	Section								
#MNEM	.UNIT	Curve	#DESCRIPTION							
#-----	-----	----	--------------							
	DEPTH	.M	:	1	DEPTH					
	RHOB	.kg/m3	:	2	Density					
	DT	.us/m	:	3	Sonic					
	GR	.API	:	4	Gamma	Ray				
	AI	.(m/s)*(kg/m3)	:	5	P-Impedance					
	AI_rel	.(m/s)*(kg/m3)	:	6	P-Impedance_rel					
	DTS	.us/m	:	3	Shear	Delta	Time			
	PHIE	.fraction	:	7	Porositykouh					
~A	(ASCII	LOG	DATA)							
# ...
	1165.2001	2195.3657	441.6895	80.7794	4970528	-16370.25	883.379	883.38	1.944334667	
	1165.3501	2203.5071	437.0902	79.034	5041502	-16370.25	874.1804	874.18	1.978479128	
	1165.5	2204.5522	436.4983	79.5168	5050569.5	-16370.25	872.9966	873	2.05641612	
	1165.65	2191.7063	443.8006	76.8825	4939457	-16370.25	887.6012	887.6	1.965050821	
	1165.8	2182.8506	448.8141	75.1056	4863609	-16370.25	897.6282	897.63	2.092033982	
	1165.9501	2180.9822	449.8731	76.333	4848001.5	-16370.25	899.7462	899.75	1.90603816	
	1166.1001	2178.3379	451.3682	78.5299	4826108.5	-16370.25	902.7364	902.74	1.900399413	
	1166.25	2174.9614	453.2723	81.0291	4798385.5	-16370.25	906.5446	906.54	1.912768353	
	1166.4	2171.031	455.5068	82.9444	4766239.5	-16370.25	911.0136	911.01	1.961868764	
	1166.55	2164.2871	459.3451	82.1406	4711886	-16370.25	918.6902	918.69	2.095793934	
	1166.7001	2161.8745	460.7302	81.0119	4692321.5	-16370.25	921.4604	921.46	2.075215576	
	1166.8501	2171.165	455.4454	80.289	4767691.5	-16370.25	910.8908	910.89	1.921438184	
	1167	2182.8567	448.7891	79.8879	4864076.5	-16370.25	897.5782	897.58	2.007930994	
	1167.15	2191.699	443.7886	81.4864	4938847	-16370.25	887.5772	887.58	1.955488273	
	1167.3	2197.9678	440.2338	81.4292	4992746.5	-16370.25	880.4676	880.47	1.926355041	
	1167.4501	2194.4714	442.2094	81.2887	4962900	-16370.25	884.4188	884.42	2.093344513	
	1167.6001	2185.178	447.5139	83.4923	4883015	-16370.25	895.0278	895.03	1.902513515	
	1167.75	2176.4519	452.467	83.016	4810649	-16370.25	904.934	904.93	1.952553711	
	1167.9	2167.9001	457.3056	81.8204	4740594	-16370.25	914.6112	914.61	2.021738167	
	1168.05	2168.0735	457.2092	82.6285	4741973	-9889.2246	914.4184	914.42	1.970864603	
	1168.2001	2172.6702	454.5947	82.8935	4779733	13573.4854	909.1894	909.19	1.913811312	
	1168.3501	2182.4502	449.0259	85.3495	4860445	36038.3125	898.0518	898.05	2.042807927	
	1168.5	2186.3621	446.8111	91.65	4893298.5	36038.3125	893.6222	893.62	2.053390048	
	1168.65	2192.3359	443.4326	94.7987	4944263.5	36038.3125	886.8652	886.87	2.041189877	
	1168.8	2200.3804	438.8719	90.402	5013726.5	36038.3125	877.7438	877.74	2.068699636	
	1168.9501	2199.9229	439.1122	83.6808	5010041	36038.3125	878.2244	878.22	2.042742651	
	1169.1001	2196.3618	441.1651	77.8142	4978646.5	36038.3125	882.3302	882.33	1.971446584	
	1169.25	2207.4707	434.8534	80.0808	5077815	36038.3125	869.7068	869.71	1.920423829	
	1169.4	2228.1968	423.0669	79.4383	5266772	36038.3125	846.1338	846.13	2.005299816	
	1169.55	2224.7307	425.0453	78.3176	5234602.5	36038.3125	850.0906	850.09	1.984226371	
	1169.7001	2210.1289	433.3022	79.332	5100754	36038.3125	866.6044	866.6	1.925278353	
	1169.8501	2205.0938	436.1834	78.2469	5055486.5	36038.3125	872.3668	872.37	1.959008616	
	1170	2211.3645	432.637	76.4963	5111445.5	36038.3125	865.274	865.27	2.078450143	
	1170.15	2217.6716	429.0465	78.3188	5168841.5	36038.3125	858.093	858.09	1.998852014	
	1170.3	2214.6292	430.7785	79.6985	5141207	36038.3125	861.557	861.56	1.947771081	
	1170.4501	2200.8311	438.6022	77.2082	5018062	36038.3125	877.2044	877.2	2.090294627	
	1170.6001	2186.2695	446.8705	80.2505	4892415	36038.3125	893.741	893.74	2.090609868	
	1170.75	2183.2532	448.6094	82.8214	4866809.5	36038.3125	897.2188	897.22	1.923873067	
	1170.9	2195.1936	441.7862	78.3252	4968913	36038.3125	883.5724	883.57	2.017985911	
	1171.05	2198.7644	439.8051	78.3946	4999450.5	36038.3125	879.6102	879.61	2.005460275	
	1171.2001	2186.5652	446.6869	77.0454	4895074.5	36038.3125	893.3738	893.37	2.087277653	
	1171.3501	2184.1006	448.1056	72.4393	4874076	36038.3125	896.2112	896.21	2.015514684	
	1171.5	2185	447.6175	71.54	4881400.5	36038.3125	895.235	895.23	2.021343012	
	1171.65	2191.7595	443.7563	72.2943	4939116	36038.3125	887.5126	887.51	1.917160831	
	1171.8	2200.4065	438.8468	77.0175	5014093.5	36038.3125	877.6936	877.69	1.932350566	
	1171.9501	2187.8191	445.9932	74.8596	4905600	36038.3125	891.9864	891.99	2.009308557	
	1172.1001	2176.0774	452.6519	77.3548	4807487.5	36038.3125	905.3038	905.3	1.929576389	
	1172.25	2170.0549	456.0756	80.9263	4758128	36038.3125	912.1512	912.15	2.067602079	
	1172.4	2176.2595	452.5797	80.5811	4808617	36038.3125	905.1594	905.16	1.986284146	
	1172.55	2171.2351	455.4024	82.3548	4767771.5	36038.3125	910.8048	910.8	2.055617528	
	1172.7001	2172.8418	454.4841	85.0273	4780905.5	37812.4336	908.9682	908.97	1.951229031	
	1172.8501	2177.0408	452.1178	86.6035	4815232.5	38934.8281	904.2356	904.24	2.014663414	
	1173	2182.9106	448.8026	83.6753	4863909	39080.875	897.6052	897.61	2.065434588	
	1173.15	2169.7109	456.2646	84.6547	4755826.5	39080.875	912.5292	912.53	1.947743889	
	1173.3	2167.73	457.3994	88.6564	4739253	39080.875	914.7988	914.8	2.0183668	
	1173.4501	2171.6194	455.1832	87.1695	4770906	39080.875	910.3664	910.37	2.025020749	
	1173.6001	2184.9033	447.6502	84.3401	4881294	39080.875	895.3004	895.3	2.094040527	
	1173.75	2191.2383	444.036	85.3733	4934847.5	39080.875	888.072	888.07	2.077745011	
	1173.9	2198.1716	440.1165	82.531	4994666	39080.875	880.233	880.23	2.043247805	
	1174.05	2206.4763	435.3939	81.5825	5067937.5	39080.875	870.7878	870.79	2.089205506	
	1174.2001	2213.396	431.475	82.37	5129939.5	39080.875	862.95	862.95	2.095219666	
	1174.3501	2211.2744	432.6836	78.6692	5110688	39080.875	865.3672	865.37	1.937213021	
	1174.5	2215.1504	430.4574	75.5348	5146220.5	39080.875	860.9148	860.91	2.066497264	
	1174.65	2217.272	429.2466	73.6494	5165498.5	39080.875	858.4932	858.49	2.08079651	
	1174.8	2212.4719	431.9926	68.6889	5121685.5	39080.875	863.9852	863.99	2.077158156	
	1174.9501	2211.4429	432.5634	66.5935	5112429	39080.875	865.1268	865.13	2.074703181	
	1175.1001	2217.3921	429.183	68.2715	5166738	39080.875	858.366	858.37	2.071452236	
	1175.25	2223.4807	425.7422	67.7296	5222667	39080.875	851.4844	851.48	1.938142752	
	1175.4	2228.1265	423.1135	67.6582	5266093	39080.875	846.227	846.23	2.095577407	
	1175.55	2231.5176	421.1745	67.7118	5298341.5	39080.875	842.349	842.35	1.927241744	
	1175.7001	2234.2402	419.6129	67.5954	5324556.5	39080.875	839.2258	839.23	2.072527532	
	1175.8501	2232.9846	420.3184	71.0713	5312679	39080.875	840.6368	840.64	2.070153209	
	1176	2224.5598	425.1129	72.2317	5233305.5	39080.875	850.2258	850.23	1.964984845	
	1176.15	2219.6006	427.9514	71.6657	5186576.5	39080.875	855.9028	855.9	2.087751067	
	1176.3	2221.8572	426.6571	73.1058	5207627.5	39080.875	853.3142	853.31	2.082016312	
	1176.4501	2224.8079	424.9762	75.0885	5235159	39080.875	849.9524	849.95	1.993284708	
	1176.6001	2227.98	423.1861	78.1193	5264820	39080.875	846.3722	846.37	2.098699444	
	1176.75	2231.4099	421.23	77.1555	5297399	39080.875	842.46	842.46	2.007203517	
	1176.9	2230.3032	421.8642	74.4356	5286928.5	39080.875	843.7284	843.73	2.024529942	
	1177.05	2222.5979	426.2448	74.2097	5214617	39080.875	852.4896	852.49	2.093864948	
	1177.2001	2220.4919	427.4343	70.85	5195145	34873.3594	854.8686	854.87	1.937494689	
	1177.3501	2221.9946	426.5777	68.9707	5209171	21697.5898	853.1554	853.16	2.07033996	
	1177.5	2216.772	429.5655	71.9209	5160517.5	10798.25	859.131	859.13	1.941135883	
	1177.65	2220.4727	427.4564	75.2599	5194712.5	10798.25	854.9128	854.91	2.065040886	
	1177.8	2221.5195	426.837	75.1528	5204804.5	10798.25	853.674	853.67	2.093119491	
	1177.9501	2216.1682	429.8813	72.7366	5155306	10798.25	859.7626	859.76	2.046288215	
	1178.1001	2220.1724	427.6134	75.3481	5192307.5	10798.25	855.2268	855.23	2.082513226	
	1178.25	2228.4722	422.8995	75.3219	5269523	10798.25	845.799	845.8	1.963203246	
	1178.4	2229.8354	422.1307	75.9181	5282339	10798.25	844.2614	844.26	1.902097469	
	1178.55	2228.1074	423.099	79.0977	5266179.5	10798.25	846.198	846.2	1.946382372	
	1178.7001	2225.4551	424.6004	78.4095	5241306	10798.25	849.2008	849.2	2.091681555	
	1178.8501	2222.7012	426.1699	77.8326	5215565.5	10798.25	852.3398	852.34	1.917158402	
	1179	2218.3381	428.6703	74.9343	5174981.5	10798.25	857.3406	857.34	1.936310892	
	1179.15	2212.5715	431.9199	76.1317	5122769	10798.25	863.8398	863.84	2.058365377	
	1179.3	2203.8154	436.9003	77.8501	5044389.5	10798.25	873.8006	873.8	2.031373547	
	1179.4501	2192.2344	443.5025	78.8945	4943445.5	10798.25	887.005	887	2.082866669	
