~VERSION	INFORMATION									
	VERS.	2	:	CWLS	LOG	ASCII	STANDARD	-	VERSION	2
	WRAP.	NO	:	ONE	LINE	PER	DEPTH	STEP		
#										
~Well	Information	Section								
#MNEM	.UNIT	DATA	DESCRIPTION							
#-----	-----	--------	--------------							
	STRT	.M	30	:	START	DEPTH				
	STOP	.M	2140	:	END	DEPTH				
	STEP	.M	0.15	:	INCREMENT	DEPTH				
	NULL	.	-999.25	:	NULL	VALUE				
	COMP	.	:							
	WELL	.	F03-2	:	WELL	NAME				
	EKB	.M	30	:	KELLY	BUSHING	ELEVATION			
	EGL	.M	0	:	GROUND	LEVEL	ELEVATION			
	EPD	.M	0	:	PERMANENT	DATUM	ELEVATION			
	FLD	.	:							
	LOC	.	X	=	619101	Y	=	6089491.0000:	WELL	LOCATION
	PROV	.	:							
	SRVC	.	:							
	PROV	.	:							
	DATE	.	:							
	API	.	:							
#										
~Curve	Information	Section								
#MNEM	.UNIT	Curve	#DESCRIPTION							
#-----	-----	----	--------------							
	DEPTH	.M	:	1	DEPTH					
	RHOB	.kg/m3	:	2	Density					
	DT	.us/m	:	3	Sonic					
	GR	.API	:	4	Gamma	Ray				
	AI	.(m/s)*(kg/m3)	:	5	P-Impedance					
	AI_rel	.(m/s)*(kg/m3)	:	6	P-Impedance_rel					
	DTS	.us/m	:	3	Shear	Delta	Time			
	PHIE	.fraction	:	7	Porositykouh					
~A	(ASCII	LOG	DATA)							
# ...
	951.6	2199.5935	439.3307	58.0067	5006692.5	103963.9531	878.6614	878.66	1.971543985	
	951.7501	2197.0154	440.7617	57.9616	4984815	103963.9531	881.5234	881.52	1.943309718	
	951.9	2177.9446	451.6251	57.992	4822461.5	103963.9531	903.2502	903.25	1.910829945	
	952.05	2179.1262	450.9083	58.0408	4832755.5	103963.9531	901.8166	901.82	2.05049258	
	952.2	2185.0698	447.5454	58.0803	4882368	103963.9531	895.0908	895.09	1.91761054	
	952.35	2166.3999	458.1591	58.12	4728488	103963.9531	916.3182	916.32	1.977440164	
	952.5001	2173.7036	454.0344	58.199	4787538.5	103963.9531	908.0688	908.07	2.022634487	
	952.65	2169.0295	456.6531	58.1319	4749847	103963.9531	913.3062	913.31	1.987022129	
	952.8	2161.219	461.0914	57.9764	4687206.5	103963.9531	922.1828	922.18	1.996840696	
	952.95	2179.6094	450.6658	57.97	4836648.5	103963.9531	901.3316	901.33	1.919589552	
	953.1	2176.3516	452.4935	57.97	4809701.5	103963.9531	904.987	904.99	1.972465242	
	953.2501	2179.446	450.7419	57.9337	4835254	103963.9531	901.4838	901.48	2.011685798	
	953.4	2195.9775	441.3823	57.8049	4975567	103963.9531	882.7646	882.76	2.067155429	
	953.55	2187.9561	445.9436	56.8308	4906498.5	103963.9531	891.8872	891.89	1.913888553	
	953.7	2189.5254	445.0276	56.9065	4919992	103963.9531	890.0552	890.06	2.047957971	
	953.85	2192.5398	443.3099	57.6512	4945853.5	103963.9531	886.6198	886.62	1.923794463	
	954.0001	2174.3904	453.6298	57.9371	4794074.5	103963.9531	907.2596	907.26	2.017455364	
	954.15	2170.7441	455.713	58.1083	4763402.5	103963.9531	911.426	911.43	1.959280237	
	954.3	2183.1238	448.6763	58.012	4866097.5	103963.9531	897.3526	897.35	1.998037912	
	954.45	2192.2856	443.4674	57.0749	4943625	103963.9531	886.9348	886.93	2.099011013	
	954.6	2196.3005	441.1844	57.2955	4978209.5	103963.9531	882.3688	882.37	2.005408309	
	954.7501	2200.1372	439.0118	57.2084	5011605	103963.9531	878.0236	878.02	1.948777647	
	954.9	2203.4746	437.1012	57.7024	5041130.5	103963.9531	874.2024	874.2	1.919682456	
	955.05	2207.3245	434.9286	57.838	5075182.5	103963.9531	869.8572	869.86	2.01362849	
	955.2	2213.9636	431.1493	56.8434	5135181	103963.9531	862.2986	862.3	1.973390769	
	955.35	2224.4036	425.201	54.7338	5231790	103963.9531	850.402	850.4	1.919744038	
	955.5001	2232.2341	420.7418	55.5136	5305583.5	103963.9531	841.4836	841.48	1.907534316	
	955.65	2237.5029	417.7592	54.682	5356034.5	103963.9531	835.5184	835.52	2.053364828	
	955.8	2237.8552	417.5562	53.5354	5359424.5	103963.9531	835.1124	835.11	2.067655009	
	955.95	2234.8669	419.2487	52.4086	5330688	111752.6797	838.4974	838.5	2.020158777	
	956.1	2232.6501	420.5186	50.0354	5309284	128657.7422	841.0372	841.04	2.009584596	
	956.2501	2232.1001	420.8373	48.152	5303950	136515.7344	841.6746	841.67	2.043058922	
	956.4	2221.7205	426.7281	49.4579	5207399	136515.7344	853.4562	853.46	1.901374002	
	956.55	2216.689	429.5767	53.4878	5160240	136515.7344	859.1534	859.15	1.978542225	
	956.7	2212.157	432.1728	56.6216	5119139	136515.7344	864.3456	864.35	1.940690045	
	956.85	2208.4492	434.2928	55.6771	5085202	136515.7344	868.5856	868.59	1.930332214	
	957.0001	2212.988	431.6964	53.8018	5126351	136515.7344	863.3928	863.39	1.914816763	
	957.15	2208.5908	434.2031	54.6611	5087151.5	136515.7344	868.4062	868.41	2.066761301	
	957.3	2202.5962	437.6198	56.5865	5033148.5	136515.7344	875.2396	875.24	2.011059569	
	957.45	2211.3191	432.664	57.5659	5111681.5	136515.7344	865.328	865.33	1.95223268	
	957.6	2223.4287	425.7799	55.8183	5222208.5	136515.7344	851.5598	851.56	2.080709432	
	957.7501	2234.6345	419.4022	52.808	5328957.5	136515.7344	838.8044	838.8	2.030269429	
	957.9	2251.698	409.7114	51.3672	5497057.5	136515.7344	819.4228	819.42	1.911330272	
	958.05	2268.4646	400.1846	49.7993	5669240.5	136515.7344	800.3692	800.37	2.085224915	
	958.2	2274.8611	396.5499	49.133	5736725.5	136515.7344	793.0998	793.1	1.911516922	
	958.35	2265.7917	401.6861	49.8138	5641589	136515.7344	803.3722	803.37	1.953080347	
	958.5001	2256.0859	407.2052	49.8197	5540420.5	136515.7344	814.4104	814.41	2.04659223	
	958.65	2254.697	408.0002	52.0382	5526364	136515.7344	816.0004	816	2.055481329	
	958.8	2247.7627	411.9401	52.7522	5456689	136515.7344	823.8802	823.88	1.906296721	
	958.95	2240.2502	416.2245	49.12	5382510	136515.7344	832.449	832.45	2.08145929	
	959.1	2225.3225	424.6818	49.3915	5242444	136515.7344	849.3636	849.36	1.973032287	
	959.2501	2203.2668	437.2142	48.5454	5039332.5	136515.7344	874.4284	874.43	2.095889646	
	959.4	2207.499	434.8052	47.8814	5077409	136515.7344	869.6104	869.61	1.959899832	
	959.55	2218.5693	428.5208	46.2789	5177296	136515.7344	857.0416	857.04	2.024695299	
	959.7	2223.8845	425.5103	48.343	5226767	136515.7344	851.0206	851.02	1.956499976	
	959.85	2233.2097	420.1916	47.2352	5314781.5	136515.7344	840.3832	840.38	2.069471075	
	960.0001	2227.8726	423.2412	45.611	5264039	136515.7344	846.4824	846.48	2.01447545	
	960.15	2217.4541	429.1599	44.6478	5167202.5	136515.7344	858.3198	858.32	1.976828133	
	960.3	2210.1045	433.3159	43.8338	5100805.5	136515.7344	866.6318	866.63	2.007103544	
	960.45	2224.9963	424.8786	43.2782	5237194	136515.7344	849.7572	849.76	1.949443621	
	960.6	2237.3992	417.8288	44.561	5355080	129602.4844	835.6576	835.66	1.978700019	
	960.7501	2223.6135	425.6541	46.4464	5224437	70061.7891	851.3082	851.31	2.025015087	
	960.9	2204.5898	436.4818	44.3843	5051101	-30006.3711	872.9636	872.96	2.039168775	
	961.05	2187.1968	446.3563	45.1368	4900508	-30006.3711	892.7126	892.71	1.918829297	
	961.2	2166.7109	458.0009	47.5997	4730808	-30006.3711	916.0018	916	2.012165422	
	961.35	2170.7112	455.6888	45.4596	4763687.5	-30006.3711	911.3776	911.38	2.052434971	
	961.5001	2184.9355	447.6606	46.4591	4880812	-30006.3711	895.3212	895.32	2.093860673	
	961.65	2175.645	452.9235	46.1288	4803576	-30006.3711	905.847	905.85	2.099835697	
	961.8	2186.2998	446.8718	50.4507	4892454.5	-30006.3711	893.7436	893.74	1.979554902	
	961.95	2185.8	447.1273	52.21	4888541.5	-30006.3711	894.2546	894.25	1.916629836	
	962.1	2167.1787	457.7475	48.574	4734514	-30006.3711	915.495	915.49	2.059009181	
	962.2501	2172.1189	454.9206	45.7923	4774730.5	-30006.3711	909.8412	909.84	1.993861324	
	962.4	2168.417	457.001	40.9551	4744892.5	-30006.3711	914.002	914	2.06154954	
	962.55	2171.4678	455.2903	43.6591	4769421.5	-30006.3711	910.5806	910.58	1.986904646	
	962.7	2168.9392	456.7134	45.4436	4749022	-30006.3711	913.4268	913.43	1.964941385	
	962.85	2169.3298	456.4965	45.373	4752128.5	-30006.3711	912.993	912.99	1.975106904	
	963.0001	2174.1006	453.7746	47.2746	4791175.5	-30006.3711	907.5492	907.55	2.083387264	
	963.15	2174.0933	453.7672	48.595	4791209.5	-30006.3711	907.5344	907.53	1.920333842	
	963.3	2172.1221	454.9286	50.5951	4774650.5	-30006.3711	909.8572	909.86	2.071186426	
	963.45	2169.4468	456.4501	50.0191	4752877.5	-30006.3711	912.9002	912.9	1.998721691	
	963.6	2150.136	467.4049	47.7257	4600901.5	-30006.3711	934.8098	934.81	1.900726195	
	963.7501	2151.0823	466.8806	48.575	4607407.5	-30006.3711	933.7612	933.76	2.074556433	
	963.9	2148.5217	468.3358	48.646	4587602.5	-30006.3711	936.6716	936.67	2.078107089	
	964.05	2140.1528	473.0866	50.0185	4523952	-30006.3711	946.1732	946.17	1.964362696	
	964.2	2149.0239	468.0437	50.5312	4591858.5	-30006.3711	936.0874	936.09	1.91009885	
	964.35	2159.9744	461.798	49.2649	4677506	-30006.3711	923.596	923.6	2.065602936	
	964.5001	2155.6934	464.2561	46.7816	4643503	-30006.3711	928.5122	928.51	2.059904321	
	964.65	2157.4124	463.262	46.02	4657078.5	-30006.3711	926.524	926.52	2.0736613	
	964.8	2179.9402	450.4798	44.1125	4841110	-30006.3711	900.9596	900.96	2.056241585	
	964.95	2195.561	441.6189	43.5556	4971837	-30006.3711	883.2378	883.24	1.909258455	
	965.1	2201.2412	438.3889	44.0069	5021248	-84414.3203	876.7778	876.78	2.002745918	
	965.2501	2200.4653	438.8094	42.5075	5014655	-166100.4219	877.6188	877.62	2.016437319	
	965.4	2169.2146	456.5703	42.1578	4756639	-195412.7969	913.1406	913.14	2.055393477	
	965.55	2158.3555	462.7449	43.7354	4664547.5	-195412.7969	925.4898	925.49	1.98067152	
	965.7	2162.5	460.3701	46.9633	4697308	-195412.7969	920.7402	920.74	1.940975269	
	965.85	2155.2803	464.4655	48.4566	4640688	-195412.7969	928.931	928.93	2.058336583	
