~VERSION	INFORMATION									
	VERS.	2	:	CWLS	LOG	ASCII	STANDARD	-	VERSION	2
	WRAP.	NO	:	ONE	LINE	PER	DEPTH	STEP		
#										
~Well	Information	Section								
#MNEM	.UNIT	DATA	DESCRIPTION							
#-----	-----	--------	--------------							
	STRT	.M	30	:	START	DEPTH				
	STOP	.M	2140	:	END	DEPTH				
	STEP	.M	0.15	:	INCREMENT	DEPTH				
	NULL	.	-999.25	:	NULL	VALUE				
	COMP	.	:							
	WELL	.	F03-2	:	WELL	NAME				
	EKB	.M	30	:	KELLY	BUSHING	ELEVATION			
	EGL	.M	0	:	GROUND	LEVEL	ELEVATION			
	EPD	.M	0	:	PERMANENT	DATUM	ELEVATION			
	FLD	.	:							
	LOC	.	X	=	619101	Y	=	6089491.0000:	WELL	LOCATION
	PROV	.	:							
	SRVC	.	:							
	PROV	.	:							
	DATE	.	:							
	API	.	:							
#										
~Curve	Information	Section								
#MNEM	.UNIT	Curve	#DESCRIPTION							
#-----	-----	----	--------------							
	DEPTH	.M	:	1	DEPTH					
	RHOB	.kg/m3	:	2	Density					
	DT	.us/m	:	3	Sonic					
	GR	.API	:	4	Gamma	Ray				
	AI	.(m/s)*(kg/m3)	:	5	P-Impedance					
	AI_rel	.(m/s)*(kg/m3)	:	6	P-Impedance_rel					
	DTS	.us/m	:	3	Shear	Delta	Time			
	PHIE	.fraction	:	7	Porositykouh					
~A	(ASCII	LOG	DATA)							
# ...
	893.85	2178.8477	451.1194	52.2669	4829994	-42755.2109	902.2388	902.24	2.034713346	
	894.0001	2189.033	445.3318	53.5666	4915675	-42755.2109	890.6636	890.66	2.099504106	
	894.15	2198.5889	439.8951	52.0116	4998066.5	-42755.2109	879.7902	879.79	1.977224308	
	894.3	2188.4758	445.5978	49.3007	4911738.5	-42755.2109	891.1956	891.2	1.960110587	
	894.45	2168.3599	457.0588	47.9686	4744160	-42755.2109	914.1176	914.12	2.010639662	
	894.6	2169.5276	456.4061	46.4305	4753521	-42755.2109	912.8122	912.81	1.964260645	
	894.7501	2175.634	452.9384	38.9852	4803404.5	-42755.2109	905.8768	905.88	2.057190052	
	894.9	2183.7341	448.3388	29.0101	4870731.5	-42755.2109	896.6776	896.68	2.099291045	
	895.05	2190.196	444.6437	13.0198	4925732.5	-42755.2109	889.2874	889.29	2.085998612	
	895.2	2189.6001	444.9738	-2.8	4920739.5	-42755.2109	889.9476	889.95	1.958076361	
	895.35	2178.0571	451.5503	21.4697	4823529.5	-42755.2109	903.1006	903.1	2.025668437	
	895.5001	2167.4832	457.537	21.8	4737314.5	-42755.2109	915.074	915.07	1.93713699	
	895.65	2171.6182	455.1916	21.8	4770786.5	-42755.2109	910.3832	910.38	1.961686943	
	895.8	2182.1421	449.2185	21.8	4857712	-42755.2109	898.437	898.44	1.912665679	
	895.95	2196.8	440.9124	21.8	4982564.5	-42755.2109	881.8248	881.82	2.093084364	
	896.1	2191.4614	443.939	21.8	4936449.5	-42755.2109	887.878	887.88	1.945281658	
	896.2501	2199.5552	439.3349	32.9229	5006660	-42755.2109	878.6698	878.67	1.966551798	
	896.4	2190.4761	444.5107	36.5653	4927992	-42755.2109	889.0214	889.02	1.9468724	
	896.55	2180.4995	450.1389	34.5063	4844185.5	-42755.2109	900.2778	900.28	2.034099123	
	896.7	2189.6873	444.9084	34.679	4921877.5	-42755.2109	889.8168	889.82	1.986358587	
	896.85	2189.0374	445.318	36.4416	4915687.5	-42755.2109	890.636	890.64	2.029260691	
	897.0001	2181.9092	449.3561	33.6248	4855740	-42755.2109	898.7122	898.71	1.915152339	
	897.15	2177.5994	451.818	34.1803	4819659.5	-42755.2109	903.636	903.64	1.974122904	
	897.3	2164.6492	459.1794	33.3373	4714592.5	-42755.2109	918.3588	918.36	2.082760505	
	897.45	2152.6887	465.9775	35.6171	4619937.5	-42755.2109	931.955	931.96	1.95860928	
	897.6	2148.158	468.5426	34.3484	4584777.5	-42755.2109	937.0852	937.09	1.953961971	
	897.7501	2146.9866	469.1956	33.1659	4575889	-11052.3809	938.3912	938.39	2.074730757	
	897.9	2148.8892	468.0926	32.4209	4590751	47401.4492	936.1852	936.19	2.05906011	
	898.05	2158.032	462.89	30.2676	4662369.5	65619.2578	925.78	925.78	2.060064348	
	898.2	2176.7832	452.262	30.711	4814175.5	65619.2578	904.524	904.52	2.008519506	
	898.35	2181.3665	449.6649	33.9039	4851121.5	65619.2578	899.3298	899.33	2.038348092	
	898.5001	2188.2417	445.7401	34.7916	4909604	65619.2578	891.4802	891.48	1.968658978	
	898.65	2185.97	447.0279	35.095	4890267	65619.2578	894.0558	894.06	2.080008495	
	898.8	2173.8003	453.9673	33.7955	4788909.5	65619.2578	907.9346	907.93	1.952611539	
	898.95	2172.3018	454.827	33.1416	4776196.5	65619.2578	909.654	909.65	1.90760777	
	899.1	2171.0627	455.5352	34.3238	4766055.5	65619.2578	911.0704	911.07	1.929455626	
	899.2501	2170.1636	456.0326	37.5053	4758812.5	65619.2578	912.0652	912.07	1.921807773	
	899.4	2175.0989	453.2309	38.5642	4799206.5	65619.2578	906.4618	906.46	1.965996483	
	899.55	2174.218	453.7225	37.2917	4792078	65619.2578	907.445	907.45	2.084291409	
	899.7	2166.1509	458.3099	37.0088	4726601.5	65619.2578	916.6198	916.62	1.966466362	
	899.85	2164.6892	459.1478	36.7684	4714661.5	65619.2578	918.2956	918.3	2.028581561	
	900.0001	2163.7002	459.6896	35.6437	4707017.5	65619.2578	919.3792	919.38	1.952266397	
	900.15	2163.7861	459.6334	34.3697	4707804.5	65619.2578	919.2668	919.27	2.045622117	
	900.3	2174.4958	453.5495	34.562	4794890.5	65619.2578	907.099	907.1	2.080663175	
	900.45	2179.7656	450.5678	35.3355	4837885	65619.2578	901.1356	901.14	1.985853435	
	900.6	2179.5178	450.709	35.3687	4835845	65619.2578	901.418	901.42	1.983631091	
	900.7501	2188.0305	445.868	35.7204	4907751.5	65619.2578	891.736	891.74	2.001187721	
	900.9	2195.8201	441.4601	36.5302	4973999.5	65619.2578	882.9202	882.92	2.0989074	
	901.05	2194.6599	442.1165	37.3022	4964054.5	65619.2578	884.233	884.23	2.068885374	
	901.2	2197.9907	440.2342	37.4441	4993598	65619.2578	880.4684	880.47	1.949970226	
	901.35	2206.1809	435.5838	39.4139	5065079.5	65619.2578	871.1676	871.17	1.997881418	
	901.5001	2195.229	441.8018	38.6124	4969424.5	65619.2578	883.6036	883.6	2.06143304	
	901.65	2177.9736	451.6053	34.9459	4823724.5	65619.2578	903.2106	903.21	1.962323808	
	901.8	2163.7903	459.6555	32.087	4707417	65619.2578	919.311	919.31	2.048292371	
	901.95	2162.8235	460.2064	32.0278	4699715	65619.2578	920.4128	920.41	1.902409125	
	902.1	2200.8398	438.5902	32.2466	5076173	68548.6797	877.1804	877.18	2.0182194	
	902.2501	2296.6716	384.1592	35.1018	5991593.5	83751.1172	768.3184	768.32	2.089088616	
	902.4	2239.8997	416.4114	38.9866	5381612	104781.7188	832.8228	832.82	1.963639744	
	902.55	2208.4951	434.2302	43.6315	5087672	104781.7188	868.4604	868.46	2.03435791	
	902.7	2178.1914	451.4635	47.8719	4826993.5	104781.7188	902.927	902.93	2.047527494	
	902.85	2144.5369	470.5992	48.9852	4557819	104781.7188	941.1984	941.2	2.093241276	
	903.0001	2119.6277	484.7458	49.1288	4373830	104781.7188	969.4916	969.49	2.001278497	
	903.15	2127.1951	480.4418	49.6784	4489690	104781.7188	960.8836	960.88	1.962430154	
	903.3	2301.5142	381.3951	44.3698	6034725.5	104781.7188	762.7902	762.79	1.922775833	
	903.45	2292.3569	386.5998	45.557	5929569.5	104781.7188	773.1996	773.2	1.925534678	
	903.6	2296.9705	384.0023	43.7154	5981741	104781.7188	768.0046	768	2.037879581	
	903.7501	2302.5579	380.8394	48.4958	6046124.5	104781.7188	761.6788	761.68	1.969909795	
	903.9	2291.1367	387.3019	52.6692	5917560	104781.7188	774.6038	774.6	1.95270252	
	904.05	2250.3342	410.4973	56.6461	5484264.5	104781.7188	820.9946	820.99	2.022501496	
	904.2	2195.5017	441.6209	57.9764	4972598.5	104781.7188	883.2418	883.24	1.956269448	
	904.35	2147.822	468.7345	57.7239	4582422.5	104781.7188	937.469	937.47	2.008790876	
	904.5001	2116.1052	486.7335	58.5825	4347570.5	104781.7188	973.467	973.47	1.935057728	
	904.65	2123.6001	482.4678	58.05	4401537	104781.7188	964.9356	964.94	1.968492247	
	904.8	2166.3	458.1968	59.17	4727880.5	104781.7188	916.3936	916.39	1.913613878	
	904.95	2191.2039	444.0483	58.4739	4934739	104781.7188	888.0966	888.1	1.987387808	
	905.1	2185.03	447.586	58.721	4881827	104781.7188	895.172	895.17	2.023996457	
	905.2501	2193.5134	442.7436	59.1941	4954412	104781.7188	885.4872	885.49	2.09142738	
	905.4	2217.0613	429.3932	59.5001	5163687.5	104781.7188	858.7864	858.79	2.094878434	
	905.55	2233.24	420.174	59.5568	5315271	104781.7188	840.348	840.35	1.986488086	
	905.7	2255.2966	407.6799	56.6971	5532685	104781.7188	815.3598	815.36	1.900796571	
	905.85	2253.6975	408.5609	56.7525	5516212.5	104781.7188	817.1218	817.12	1.946285681	
	906.0001	2237.4211	417.8389	57.8317	5355262	104781.7188	835.6778	835.68	1.978150895	
	906.15	2195.0381	441.9193	54.8733	4970230.5	104781.7188	883.8386	883.84	2.097093564	
	906.3	2191.2244	444.0541	54.9281	4934609	104781.7188	888.1082	888.11	1.982946272	
	906.45	2207.5461	434.7852	52.2598	5077949	104781.7188	869.5704	869.57	1.905925779	
	906.6	2224.7148	425.0593	51.8275	5234444.5	104781.7188	850.1186	850.12	1.952878559	
	906.7501	2254.2795	408.2586	51.8149	5524269	104781.7188	816.5172	816.52	1.970098345	
	906.9	2272.9282	397.6387	49.6646	5716653.5	42357.2734	795.2774	795.28	2.032503959	
	907.05	2260.6365	404.6353	49.2681	5587992	14983.0186	809.2706	809.27	1.917762362	
	907.2	2246.668	412.5617	51.1464	5446046	12110.0293	825.1234	825.12	2.043375156	
	907.35	2227.9507	423.2154	51.0461	5265515.5	12110.0293	846.4308	846.43	2.02132988	
	907.5001	2210.2212	433.2729	54.6519	5101914	12110.0293	866.5458	866.55	2.009935622	
	907.65	2189.9038	444.8288	55.5942	4924186.5	12110.0293	889.6576	889.66	2.044707476	
	907.8	2177.114	452.0872	56.5924	4815868.5	12110.0293	904.1744	904.17	1.917162378	
	907.95	2174.3	453.6744	58.0582	4792644	12110.0293	907.3488	907.35	2.067024773	
	908.1	2181.739	449.4402	57.8467	4854666	12110.0293	898.8804	898.88	2.057464954	
