~VERSION	INFORMATION									
	VERS.	2	:	CWLS	LOG	ASCII	STANDARD	-	VERSION	2
	WRAP.	NO	:	ONE	LINE	PER	DEPTH	STEP		
#										
~Well	Information	Section								
#MNEM	.UNIT	DATA	DESCRIPTION							
#-----	-----	--------	--------------							
	STRT	.M	30	:	START	DEPTH				
	STOP	.M	2140	:	END	DEPTH				
	STEP	.M	0.15	:	INCREMENT	DEPTH				
	NULL	.	-999.25	:	NULL	VALUE				
	COMP	.	:							
	WELL	.	F03-2	:	WELL	NAME				
	EKB	.M	30	:	KELLY	BUSHING	ELEVATION			
	EGL	.M	0	:	GROUND	LEVEL	ELEVATION			
	EPD	.M	0	:	PERMANENT	DATUM	ELEVATION			
	FLD	.	:							
	LOC	.	X	=	619101	Y	=	6089491.0000:	WELL	LOCATION
	PROV	.	:							
	SRVC	.	:							
	PROV	.	:							
	DATE	.	:							
	API	.	:							
#										
~Curve	Information	Section								
#MNEM	.UNIT	Curve	#DESCRIPTION							
#-----	-----	----	--------------							
	DEPTH	.M	:	1	DEPTH					
	RHOB	.kg/m3	:	2	Density					
	DT	.us/m	:	3	Sonic					
	GR	.API	:	4	Gamma	Ray				
	AI	.(m/s)*(kg/m3)	:	5	P-Impedance					
	AI_rel	.(m/s)*(kg/m3)	:	6	P-Impedance_rel					
	DTS	.us/m	:	3	Shear	Delta	Time			
	PHIE	.fraction	:	7	Porositykouh					
~A	(ASCII	LOG	DATA)							
# ...
	792.45	2187.2598	446.3416	50.398	4900434	36026.3047	892.6832	892.68	2.011239661	
	792.6	2184.0479	448.1342	52.6888	4873667	36026.3047	896.2684	896.27	2.098475543	
	792.75	2172.7322	454.5504	52.0288	4780320.5	25839.1953	909.1008	909.1	2.032111104	
	792.9	2162.3696	460.4424	52.2724	4696459.5	19160.0527	920.8848	920.88	2.037913959	
	793.05	2156.7739	463.6361	51.7284	4651903.5	17942.1094	927.2722	927.27	2.054569973	
	793.2	2146.7632	469.3101	49.2514	4574596.5	17942.1094	938.6202	938.62	1.913505865	
	793.35	2147.0537	469.1478	46.2174	4576561	17942.1094	938.2956	938.3	2.000475566	
	793.5	2153.6287	465.4148	44.6135	4627435.5	17942.1094	930.8296	930.83	1.939013616	
	793.65	2161.0471	461.2186	46.3522	4685647.5	17942.1094	922.4372	922.44	1.914147259	
	793.8	2175.7319	452.8534	48.0439	4805312.5	17942.1094	905.7068	905.71	2.053953387	
	793.95	2185.998	447.0234	48.7347	4890205.5	17942.1094	894.0468	894.05	1.909570241	
	794.1	2191.4517	443.9397	49.4369	4936445	17942.1094	887.8794	887.88	2.090477348	
	794.25	2184.2551	448.0087	51.1428	4876080	17942.1094	896.0174	896.02	1.908123358	
	794.4	2171.0803	455.499	52.7604	4766744	17942.1094	910.998	911	1.935457261	
	794.55	2165.8867	458.4705	50.0694	4724157.5	17942.1094	916.941	916.94	1.938817807	
	794.7	2158.0872	462.903	45.0098	4662549	17942.1094	925.806	925.81	1.965800892	
	794.85	2158.4204	462.7011	42.9093	4665211	17942.1094	925.4022	925.4	1.92032005	
	795	2162.6355	460.3097	43.797	4698244	17942.1094	920.6194	920.62	2.013177388	
	795.15	2152.1499	466.2634	45.63	4616493	17942.1094	932.5268	932.53	1.935989032	
	795.3	2145.8784	469.8214	48.3168	4567503	17942.1094	939.6428	939.64	2.059011113	
	795.45	2142.4443	471.7635	50.7716	4541756.5	17942.1094	943.527	943.53	2.04255865	
	795.6	2137.0691	474.8003	51.7888	4501018	17942.1094	949.6006	949.6	1.934947056	
	795.75	2144.4355	470.6261	51.3728	4556879	17942.1094	941.2522	941.25	2.086353375	
	795.9	2158.4124	462.6864	49.7175	4665677	17942.1094	925.3728	925.37	2.041079196	
	796.05	2174.1143	453.7719	47.4504	4791674.5	17942.1094	907.5438	907.54	1.931341342	
	796.2	2186.9785	446.4729	46.9524	4898724.5	17942.1094	892.9458	892.95	2.040487255	
	796.35	2190.3665	444.5382	49.7179	4927584.5	17942.1094	889.0764	889.08	2.022784987	
	796.5	2178.053	451.5486	52.1611	4824083.5	17942.1094	903.0972	903.1	2.070918028	
	796.65	2162.4521	460.4033	53.5719	4697491	17942.1094	920.8066	920.81	2.075643207	
	796.8	2149.959	467.503	53.3535	4598848	17942.1094	935.006	935.01	1.978426412	
	796.95	2147.3843	468.973	51.3212	4578909	19502.9297	937.946	937.95	2.064858242	
	797.1	2150.9094	466.9684	51.9656	4606334.5	27757.0254	933.9368	933.94	1.979506472	
	797.25	2160.5002	461.5163	52.6576	4681419.5	39149.418	923.0326	923.03	1.982759017	
	797.4	2166.8618	457.9064	51.8247	4732133	39149.418	915.8128	915.81	1.91918609	
	797.55	2170.9336	455.5941	50.5399	4765117.5	39149.418	911.1882	911.19	2.036823317	
	797.7	2174.7053	453.4206	52.2434	4796224.5	39149.418	906.8412	906.84	2.039746202	
	797.85	2171.5002	455.2444	53.9139	4770145	39149.418	910.4888	910.49	2.051961041	
	798	2163.6001	459.7322	54.1037	4706220	39149.418	919.4644	919.46	1.971258319	
	798.15	2165.4456	458.6962	52.3389	4720921.5	39149.418	917.3924	917.39	2.022102985	
	798.3	2169.7332	456.2505	49.3885	4755586	39149.418	912.501	912.5	2.006971505	
	798.45	2169.2219	456.5616	50.8503	4751409.5	39149.418	913.1232	913.12	2.093069942	
	798.6	2179.7866	450.5736	52.6348	4837804	39149.418	901.1472	901.15	2.05834658	
	798.7501	2177.9539	451.5789	53.859	4823204.5	39149.418	903.1578	903.16	2.056612693	
	798.9	2165.9109	458.4357	52.4328	4724614	39149.418	916.8714	916.87	1.91067892	
	799.05	2171.4817	455.2791	50.8191	4769633	39149.418	910.5582	910.56	1.947729881	
	799.2	2162.1458	460.6039	50.7262	4694231	39149.418	921.2078	921.21	2.021862394	
	799.35	2151.9275	466.3838	52.548	4614088	39149.418	932.7676	932.77	2.088303676	
	799.5001	2157.3293	463.3145	53.5184	4656327	39149.418	926.629	926.63	1.96925081	
	799.65	2148.9111	468.0825	52.2414	4590958	39149.418	936.165	936.16	2.021021121	
	799.8	2168.7642	456.8398	49.8834	4747325.5	39149.418	913.6796	913.68	1.995912758	
	799.95	2178	451.5459	47.5	4823430	39149.418	903.0918	903.09	1.902105129	
	800.1	2186.386	446.805	49.7494	4893388.5	39149.418	893.61	893.61	1.964668579	
	800.2501	2191.3677	443.9578	51.3864	4935989	39149.418	887.9156	887.92	2.092104743	
	800.4	2184.5842	447.8153	46.6082	4878336.5	39149.418	895.6306	895.63	1.948305532	
	800.55	2184.77	447.746	43.3732	4879485.5	39149.418	895.492	895.49	2.09244031	
	800.7	2196.4822	441.0931	46.1932	4979752	39149.418	882.1862	882.19	2.063844631	
	800.85	2197.2185	440.64	49.3137	4986426.5	39149.418	881.28	881.28	1.932070261	
	801.0001	2192.1077	443.5455	50.7714	4942272.5	39149.418	887.091	887.09	2.086685837	
	801.15	2179.9675	450.4298	51.5262	4839941	39149.418	900.8596	900.86	1.913055977	
	801.3	2162.5752	460.318	50.4403	4698410.5	39149.418	920.636	920.64	1.967506433	
	801.45	2152.9702	465.8006	48.3951	4622172	61298.2539	931.6012	931.6	2.09792914	
	801.6	2142.5237	471.7368	48.3659	4541940.5	99803.4062	943.4736	943.47	2.046864732	
	801.7501	2142.4714	471.7493	49.919	4541554.5	107036.8594	943.4986	943.5	2.040331951	
	801.9	2150.8215	467.0089	53.5567	4605672	107036.8594	934.0178	934.02	2.099856176	
	802.05	2155.063	464.5994	51.4382	4638554	107036.8594	929.1988	929.2	1.950985153	
	802.2	2173.2595	454.2452	49.4598	4785279.5	107036.8594	908.4904	908.49	2.001070969	
	802.35	2175.6868	452.8635	48.1688	4804319	107036.8594	905.727	905.73	2.04849338	
	802.5001	2168.2449	457.1026	47.3879	4743607	107036.8594	914.2052	914.21	2.071677755	
	802.65	2176.3455	452.5257	48.3366	4809763	107036.8594	905.0514	905.05	1.914859392	
	802.8	2179.5598	450.7066	49.8483	4835876	107036.8594	901.4132	901.41	1.905818233	
	802.95	2178.4443	451.3416	50.8871	4826600.5	107036.8594	902.6832	902.68	2.022614595	
	803.1	2185.835	447.131	49.3563	4888899.5	107036.8594	894.262	894.26	1.995291819	
	803.2501	2181.7239	449.445	47.4401	4854617.5	107036.8594	898.89	898.89	1.913839843	
	803.4	2165.7202	458.5303	47.9115	4723959.5	107036.8594	917.0606	917.06	2.056320998	
	803.55	2147.498	468.8775	50.0683	4580853	107036.8594	937.755	937.75	1.984893046	
	803.7	2134.3923	476.3226	50.6091	4481189	107036.8594	952.6452	952.65	2.053815424	
	803.85	2136.4839	475.1508	51.2628	4496657.5	107036.8594	950.3016	950.3	1.993794328	
	804.0001	2150.8535	466.981	52.6026	4606592.5	107036.8594	933.962	933.96	2.030047552	
	804.15	2167.0869	457.7614	53.3398	4734684.5	107036.8594	915.5228	915.52	2.039584484	
	804.3	2185.5159	447.2993	52.9959	4887255.5	107036.8594	894.5986	894.6	2.037912542	
	804.45	2200.0908	439.0059	50.2889	5011754	107036.8594	878.0118	878.01	2.004880587	
	804.6	2197.9128	440.2417	48.848	4992961.5	107036.8594	880.4834	880.48	2.070854759	
	804.7501	2186.1235	446.9621	49.2473	4891417	107036.8594	893.9242	893.92	1.952819702	
	804.9	2181.1685	449.7931	47.7205	4849277.5	107036.8594	899.5862	899.59	2.03391318	
	805.05	2183.4265	448.4907	47.737	4868414.5	107036.8594	896.9814	896.98	1.912778714	
	805.2	2186.6643	446.6277	50.8509	4895976.5	107036.8594	893.2554	893.26	1.950256256	
	805.35	2189.5391	444.9928	53.1191	4920404.5	107036.8594	889.9856	889.99	2.010387923	
	805.5001	2184.635	447.797	51.1227	4879207	107036.8594	895.594	895.59	1.91451053	
	805.65	2172.4592	454.7248	47.9221	4777703.5	107036.8594	909.4496	909.45	1.970665666	
	805.8	2162.469	460.3787	49.542	4697525.5	109881.9531	920.7574	920.76	1.959813157	
	805.95	2152.8398	465.8607	50.9741	4621260.5	116323.8125	931.7214	931.72	2.073738813	
	806.1	2150.2512	467.3384	51.1368	4601062	119445.3906	934.6768	934.68	1.907210995	
	806.2501	2155.4702	464.3623	49.8934	4642153	119445.3906	928.7246	928.72	2.010421582	
	806.4	2170.51	455.8214	50.1482	4762619	119445.3906	911.6428	911.64	2.0876338	
	806.55	2185.7615	447.1632	50.9623	4888148	119445.3906	894.3264	894.33	2.057943536	
	806.7	2190.8174	444.2907	50.9893	4931059	119445.3906	888.5814	888.58	1.962299212	
	806.85	2191.4258	443.9254	48.2381	4936514.5	119445.3906	887.8508	887.85	2.08247879	
