~VERSION	INFORMATION									
	VERS.	2	:	CWLS	LOG	ASCII	STANDARD	-	VERSION	2
	WRAP.	NO	:	ONE	LINE	PER	DEPTH	STEP		
#										
~Well	Information	Section								
#MNEM	.UNIT	DATA	DESCRIPTION							
#-----	-----	--------	--------------							
	STRT	.M	30	:	START	DEPTH				
	STOP	.M	2140	:	END	DEPTH				
	STEP	.M	0.15	:	INCREMENT	DEPTH				
	NULL	.	-999.25	:	NULL	VALUE				
	COMP	.	:							
	WELL	.	F03-2	:	WELL	NAME				
	EKB	.M	30	:	KELLY	BUSHING	ELEVATION			
	EGL	.M	0	:	GROUND	LEVEL	ELEVATION			
	EPD	.M	0	:	PERMANENT	DATUM	ELEVATION			
	FLD	.	:							
	LOC	.	X	=	619101	Y	=	6089491.0000:	WELL	LOCATION
	PROV	.	:							
	SRVC	.	:							
	PROV	.	:							
	DATE	.	:							
	API	.	:							
#										
~Curve	Information	Section								
#MNEM	.UNIT	Curve	#DESCRIPTION							
#-----	-----	----	--------------							
	DEPTH	.M	:	1	DEPTH					
	RHOB	.kg/m3	:	2	Density					
	DT	.us/m	:	3	Sonic					
	GR	.API	:	4	Gamma	Ray				
	AI	.(m/s)*(kg/m3)	:	5	P-Impedance					
	AI_rel	.(m/s)*(kg/m3)	:	6	P-Impedance_rel					
	DTS	.us/m	:	3	Shear	Delta	Time			
	PHIE	.fraction	:	7	Porositykouh					
~A	(ASCII	LOG	DATA)							
# ...
	1065.4501	2234.1472	419.701	62.131	5323194	-5654.3774	839.402	839.4	1.909060182	
	1065.6001	2232.2295	420.7731	64.1746	5305068.5	-5654.3774	841.5462	841.55	1.951093969	
	1065.75	2231.626	421.1164	64.5385	5299309.5	-5654.3774	842.2328	842.23	2.097849216	
	1065.9	2231.4795	421.1992	62.2313	5297950.5	-5654.3774	842.3984	842.4	2.042697544	
	1066.05	2224.8965	424.9089	61.3855	5236280	-5654.3774	849.8178	849.82	2.008059354	
	1066.2001	2212.3535	432.0419	63.4774	5120698	-5654.3774	864.0838	864.08	2.073646296	
	1066.3501	2208.9141	433.9974	64.7397	5089694.5	-5654.3774	867.9948	867.99	1.952299996	
	1066.5	2209.6553	433.6032	60.4206	5096036	-5654.3774	867.2064	867.21	1.97092233	
	1066.65	2218.1001	428.7795	65.08	5173055	-5654.3774	857.559	857.56	1.963628126	
	1066.8	2226.2917	424.161	69.1069	5248706	-5654.3774	848.322	848.32	2.041850147	
	1066.9501	2234.9707	419.2101	68.8581	5331411.5	-5654.3774	838.4202	838.42	1.964678051	
	1067.1001	2229.5352	422.3236	65.2303	5279227.5	-5654.3774	844.6472	844.65	2.066858704	
	1067.25	2233.0623	420.3171	61.0732	5312815	-5654.3774	840.6342	840.63	2.055694689	
	1067.4	2240.5288	416.0742	61.6634	5384980.5	-5654.3774	832.1484	832.15	2.084305548	
	1067.55	2252.3499	409.3398	64.3066	5502576.5	-5654.3774	818.6796	818.68	1.958211251	
	1067.7001	2267.7944	400.5889	61.997	5661508	-5654.3774	801.1778	801.18	2.04041702	
	1067.8501	2280.4167	393.4144	62.7377	5796727.5	7718.939	786.8288	786.83	1.906363844	
	1068	2283.105	391.8764	63.4137	5826087.5	14404.75	783.7528	783.75	1.930941501	
	1068.15	2274.3213	396.8554	68.345	5731081	15192.4365	793.7108	793.71	1.998046451	
	1068.3	2262.449	403.5954	71.6422	5606060.5	15192.4365	807.1908	807.19	2.003713226	
	1068.4501	2252.9771	408.9913	70.2948	5508793.5	15192.4365	817.9826	817.98	2.005237205	
	1068.6001	2249.6987	410.8495	65.9388	5475733	15192.4365	821.699	821.7	2.015808752	
	1068.75	2251.6404	409.7312	66.9493	5495431.5	15192.4365	819.4624	819.46	1.938383689	
	1068.9	2253.1433	408.8759	66.3143	5510583	15192.4365	817.7518	817.75	2.012580658	
	1069.05	2247.9473	411.8346	63.0444	5458513.5	15192.4365	823.6692	823.67	2.04288593	
	1069.2001	2242.9441	414.6947	65.7223	5408712.5	15192.4365	829.3894	829.39	2.015820838	
	1069.3501	2248.2881	411.6656	65.7235	5461665	15192.4365	823.3312	823.33	2.008172948	
	1069.5	2246.668	412.5568	65.6652	5445816	15192.4365	825.1136	825.11	2.042126882	
	1069.65	2237.8953	417.5241	65.4548	5360214.5	15192.4365	835.0482	835.05	2.033475653	
	1069.8	2228.762	422.7264	63.8889	5272576.5	15192.4365	845.4528	845.45	2.074718751	
	1069.9501	2220.9648	427.1642	62.2591	5199477	15192.4365	854.3284	854.33	2.057899872	
	1070.1001	2221.7939	426.7021	62.4452	5206976	15192.4365	853.4042	853.4	2.084425306	
	1070.25	2224.6929	425.0411	64.4558	5234073	15192.4365	850.0822	850.08	1.915814019	
	1070.4	2232.584	420.5546	66.6883	5309106.5	15192.4365	841.1092	841.11	2.060193868	
	1070.55	2244.6331	413.7338	70.2238	5425816	15192.4365	827.4676	827.47	1.983738521	
	1070.7001	2253.4714	408.7096	74.0315	5513767	15192.4365	817.4192	817.42	2.026669963	
	1070.8501	2258.3303	405.9537	74.8189	5563074.5	15192.4365	811.9074	811.91	2.041057885	
	1071	2259.0808	405.538	69.944	5570587.5	15192.4365	811.076	811.08	1.998278918	
	1071.15	2256.0364	407.2513	66.7101	5539731.5	15192.4365	814.5026	814.5	1.991622696	
	1071.3	2248.272	411.6527	64.2097	5462014	15192.4365	823.3054	823.31	1.996708244	
	1071.4501	2237.0203	418.0407	61.6413	5351634	15192.4365	836.0814	836.08	1.937729073	
	1071.6001	2230.2383	421.8831	62.4549	5286402.5	15192.4365	843.7662	843.77	1.937651025	
	1071.75	2230.3962	421.799	63.3267	5287839	15192.4365	843.598	843.6	2.045853898	
	1071.9	2234.1675	419.6743	65.0948	5323663.5	15192.4365	839.3486	839.35	2.058357918	
	1072.05	2240.2183	416.2282	67.4166	5382364	15192.4365	832.4564	832.46	2.051222053	
	1072.2001	2244.1101	414.0155	66.1675	5420355	15192.4365	828.031	828.03	2.074163204	
	1072.3501	2240.2971	416.199	63.6503	5382982.5	15192.4365	832.398	832.4	2.07059756	
	1072.5	2229.7617	422.1754	62.9494	5282216	15192.4365	844.3508	844.35	2.016464801	
	1072.65	2221.0835	427.1212	61.7474	5200125	29902.3809	854.2424	854.24	1.989744138	
	1072.8	2221.9199	426.64	63.0874	5207956.5	55316.918	853.28	853.28	2.086423561	
	1072.9501	2224.5012	425.1595	63.017	5232222.5	55390.5547	850.319	850.32	2.004833324	
	1073.1001	2234.0156	419.7395	65.7584	5323489.5	55390.5547	839.479	839.48	2.03731799	
	1073.25	2247.2798	412.2255	69.4252	5451580.5	55390.5547	824.451	824.45	1.980633742	
	1073.4	2244.6799	413.71	65.1482	5425912	55390.5547	827.42	827.42	2.096395633	
	1073.55	2240.9817	415.7868	57.6122	5389898.5	55390.5547	831.5736	831.57	2.087751765	
	1073.7001	2244.2122	413.9498	58.1349	5421705.5	55390.5547	827.8996	827.9	2.013898914	
	1073.8501	2236.9001	418.1225	58.1031	5349868	55390.5547	836.245	836.25	2.094517095	
	1074	2238.0215	417.484	57.8323	5360794.5	55390.5547	834.968	834.97	1.968356911	
	1074.15	2243.178	414.5557	56.6901	5411113.5	55390.5547	829.1114	829.11	1.923804142	
	1074.3	2245.3794	413.2912	55.1802	5433237.5	55390.5547	826.5824	826.58	1.917658438	
	1074.4501	2235.7004	418.7885	54.7883	5338505.5	55390.5547	837.577	837.58	2.086429466	
	1074.6001	2237.9368	417.5307	54.9579	5359941.5	55390.5547	835.0614	835.06	2.083123047	
	1074.75	2239.6301	416.5663	56.0567	5376407.5	55390.5547	833.1326	833.13	1.956516811	
	1074.9	2240.3425	416.1328	56.8579	5383839.5	55390.5547	832.2656	832.27	1.979226169	
	1075.05	2246.8889	412.4199	55.4067	5448258	55390.5547	824.8398	824.84	1.913465047	
	1075.2001	2236.0872	418.6005	55.8572	5341822	55390.5547	837.201	837.2	1.982796604	
	1075.3501	2237.9966	417.4689	54.1286	5360871.5	55390.5547	834.9378	834.94	1.947495394	
	1075.5	2239.0759	416.86	55.7311	5371290.5	55390.5547	833.72	833.72	1.948804278	
	1075.65	2239.2239	416.8007	56.1015	5372482.5	55390.5547	833.6014	833.6	2.052948827	
	1075.8	2249.9155	410.737	56.9556	5477759.5	55390.5547	821.474	821.47	1.932224103	
	1075.9501	2254.0073	408.379	57.5265	5519409.5	55390.5547	816.758	816.76	1.949904974	
	1076.1001	2247.3918	412.1304	57.9901	5453109.5	55390.5547	824.2608	824.26	1.934441088	
	1076.25	2237.0999	417.9853	58.05	5352102.5	55390.5547	835.9706	835.97	1.996979747	
	1076.4	2227.4995	423.4734	56.5119	5260094.5	55390.5547	846.9468	846.95	1.964895774	
	1076.55	2229.4265	422.3393	52.4201	5278759	55390.5547	844.6786	844.68	1.929084958	
	1076.7001	2227.6057	423.4053	52.8672	5261169.5	55390.5547	846.8106	846.81	2.096820256	
	1076.8501	2236.7476	418.2135	53.9742	5348417.5	55390.5547	836.427	836.43	1.947377178	
	1077	2237.2158	417.9331	52.8906	5353047.5	55390.5547	835.8662	835.87	1.910146692	
	1077.15	2230.8105	421.5929	53.204	5291444	55390.5547	843.1858	843.19	1.931223515	
	1077.3	2227.4392	423.4996	54.5626	5259612.5	55390.5547	846.9992	847	1.919907076	
	1077.4501	2224.1509	425.3741	50.7227	5228709.5	63645.293	850.7482	850.75	1.923398092	
	1077.6001	2224.0415	425.412	50.6051	5227971	70707.8438	850.824	850.82	1.944352133	
	1077.75	2237.042	418.0104	51.6901	5352055	71703.1328	836.0208	836.02	2.025225875	
	1077.9	2253.033	408.9612	50.7892	5509711.5	71703.1328	817.9224	817.92	1.92945571	
	1078.05	2264.4751	402.4564	46.6837	5626885.5	71703.1328	804.9128	804.91	2.028115163	
	1078.2001	2271.0635	398.7003	46.8773	5696253	71703.1328	797.4006	797.4	1.961818134	
	1078.3501	2266.9607	401.0182	47.9228	5653136.5	71703.1328	802.0364	802.04	2.083577057	
	1078.5	2256.501	406.9877	43.4396	5544758	71703.1328	813.9754	813.98	1.927978513	
	1078.65	2244.5186	413.7964	41.4639	5424612	71703.1328	827.5928	827.59	1.915531651	
	1078.8	2237.449	417.7911	41.7042	5355497.5	71703.1328	835.5822	835.58	1.98209231	
	1078.9501	2237.6262	417.6931	43.0055	5357121	71703.1328	835.3862	835.39	2.020359453	
	1079.1001	2245.0325	413.4808	46.048	5429864	71703.1328	826.9616	826.96	1.989021545	
	1079.25	2247.2512	412.2454	49.8419	5451251.5	71703.1328	824.4908	824.49	2.007203506	
	1079.4	2239.7732	416.4928	53.9473	5378047	71703.1328	832.9856	832.99	1.902122091	
	1079.55	2234.03	419.7647	57.2377	5322132	71703.1328	839.5294	839.53	2.054590254	
