~VERSION	INFORMATION									
	VERS.	2	:	CWLS	LOG	ASCII	STANDARD	-	VERSION	2
	WRAP.	NO	:	ONE	LINE	PER	DEPTH	STEP		
#										
~Well	Information	Section								
#MNEM	.UNIT	DATA	DESCRIPTION							
#-----	-----	--------	--------------							
	STRT	.M	30	:	START	DEPTH				
	STOP	.M	2140	:	END	DEPTH				
	STEP	.M	0.15	:	INCREMENT	DEPTH				
	NULL	.	-999.25	:	NULL	VALUE				
	COMP	.	:							
	WELL	.	F03-2	:	WELL	NAME				
	EKB	.M	30	:	KELLY	BUSHING	ELEVATION			
	EGL	.M	0	:	GROUND	LEVEL	ELEVATION			
	EPD	.M	0	:	PERMANENT	DATUM	ELEVATION			
	FLD	.	:							
	LOC	.	X	=	619101	Y	=	6089491.0000:	WELL	LOCATION
	PROV	.	:							
	SRVC	.	:							
	PROV	.	:							
	DATE	.	:							
	API	.	:							
#										
~Curve	Information	Section								
#MNEM	.UNIT	Curve	#DESCRIPTION							
#-----	-----	----	--------------							
	DEPTH	.M	:	1	DEPTH					
	RHOB	.kg/m3	:	2	Density					
	DT	.us/m	:	3	Sonic					
	GR	.API	:	4	Gamma	Ray				
	AI	.(m/s)*(kg/m3)	:	5	P-Impedance					
	AI_rel	.(m/s)*(kg/m3)	:	6	P-Impedance_rel					
	DTS	.us/m	:	3	Shear	Delta	Time			
	PHIE	.fraction	:	7	Porositykouh					
~A	(ASCII	LOG	DATA)							
# ...
	835.65	2168.5376	456.9484	38.55	4746001.5	-158399.8125	913.8968	913.9	2.059375131	
	835.8	2158.1509	462.8759	36.7547	4662501.5	-143291.1719	925.7518	925.75	2.080299207	
	835.95	2155.1309	464.577	35.064	4638918	-85339.7188	929.154	929.15	2.047173282	
	836.1	2155.0212	464.6125	34.9357	4638419.5	-61338.625	929.225	929.23	1.900133062	
	836.2501	2163.8069	459.6536	33.6062	4707714.5	-61338.625	919.3072	919.31	2.013823739	
	836.4	2172.2642	454.8431	34.3502	4776061.5	-61338.625	909.6862	909.69	2.019096341	
	836.55	2162.8345	460.1837	35.2778	4699969	-61338.625	920.3674	920.37	1.91991538	
	836.7	2167.7007	457.4011	35.5524	4739191.5	-61338.625	914.8022	914.8	1.954381525	
	836.85	2170.998	455.5305	34.5842	4765894.5	-61338.625	911.061	911.06	1.988684892	
	837.0001	2165.6152	458.5926	36.0325	4722392.5	-61338.625	917.1852	917.19	2.0835268	
	837.15	2156.0459	464.0222	36.7428	4646486.5	-61338.625	928.0444	928.04	2.04411336	
	837.3	2148.2007	468.5248	34.8594	4585032	-61338.625	937.0496	937.05	1.974063706	
	837.45	2149.936	467.5211	38.988	4598606	-61338.625	935.0422	935.04	2.039360477	
	837.6	2155.5415	464.3466	38.4603	4642124.5	-61338.625	928.6932	928.69	1.932602083	
	837.7501	2146.8372	469.282	39.4184	4574739	-61338.625	938.564	938.56	2.018262256	
	837.9	2139.0845	473.7004	39.3421	4515700	-61338.625	947.4008	947.4	1.985765484	
	838.05	2151.2	466.8218	39.64	4608181.5	-61338.625	933.6436	933.64	1.97451372	
	838.2	2160.675	461.4093	39.6104	4682784.5	-61338.625	922.8186	922.82	1.98516749	
	838.35	2160.8	461.3529	39.2303	4683616	-61338.625	922.7058	922.71	2.047320612	
	838.5001	2169.9214	456.1445	37.5398	4757127	-61338.625	912.289	912.29	1.988385809	
	838.65	2156.4736	463.7839	35.8898	4649856.5	-61338.625	927.5678	927.57	2.088298363	
	838.8	2133.6357	476.7931	37.1153	4475319	-61338.625	953.5862	953.59	1.953762811	
	838.95	2142.5095	471.7281	37.8004	4541936.5	-61338.625	943.4562	943.46	2.057292114	
	839.1	2155.2144	464.5144	38.5479	4639866.5	-61338.625	929.0288	929.03	2.011747433	
	839.2501	2161.2661	461.0713	39.1846	4687517	-61338.625	922.1426	922.14	2.044544893	
	839.4	2177.9033	451.6191	39.4149	4822860	-61338.625	903.2382	903.24	2.090754343	
	839.55	2172.7073	454.5982	39.3299	4779516	-61338.625	909.1964	909.2	2.055410438	
	839.7	2153.3538	465.5851	38.5988	4625698.5	-61338.625	931.1702	931.17	1.941310732	
	839.85	2139.4343	473.4597	38.5801	4518939.5	-61338.625	946.9194	946.92	1.94839382	
	840.0001	2141.4214	472.3608	39.3302	4533485.5	-61338.625	944.7216	944.72	1.949308143	
	840.15	2136.3362	475.2639	34.8443	4495149.5	-38489.5664	950.5278	950.53	1.986927313	
	840.3	2152.8518	465.8643	34.596	4622149.5	1328.505	931.7286	931.73	1.924876296	
	840.45	2168.7065	456.8498	36.5929	4747448.5	11475.8389	913.6996	913.7	2.029431357	
	840.6	2170.6594	455.7417	36.6319	4762925	11475.8389	911.4834	911.48	2.033729022	
	840.7501	2168.3716	457.0432	37.6426	4744359.5	11475.8389	914.0864	914.09	1.973121792	
	840.9	2157.0532	463.456	39.3008	4654747	11475.8389	926.912	926.91	2.08780187	
	841.05	2149.6157	467.6711	41.156	4596462.5	11475.8389	935.3422	935.34	2.03102818	
	841.2	2154.8372	464.7053	41.9701	4637200.5	11475.8389	929.4106	929.41	2.001856938	
	841.35	2164.3069	459.3599	41.1226	4711770	11475.8389	918.7198	918.72	2.026760714	
	841.5001	2155.9453	464.1134	40.6648	4646032.5	11475.8389	928.2268	928.23	2.091674391	
	841.65	2151.5088	466.6191	41.5584	4610872	11475.8389	933.2382	933.24	1.915817744	
	841.8	2154.0747	465.1716	43.1098	4630720	11475.8389	930.3432	930.34	2.095150104	
	841.95	2146.6248	469.4115	43.2301	4573461.5	11475.8389	938.823	938.82	1.900148404	
	842.1	2146.8232	469.2743	41.3471	4575026	11475.8389	938.5486	938.55	2.021401444	
	842.2501	2159.1428	462.2581	39.2496	4671327.5	11475.8389	924.5162	924.52	1.905366979	
	842.4	2167.8943	457.2993	38.5773	4740703	11475.8389	914.5986	914.6	2.011792482	
	842.55	2163.6724	459.7243	40.309	4706825.5	11475.8389	919.4486	919.45	1.912288282	
	842.7	2164.4875	459.2546	41.79	4713467	11475.8389	918.5092	918.51	2.087242044	
	842.85	2165.1755	458.8456	41.6123	4719079	11475.8389	917.6912	917.69	1.988436523	
	843.0001	2157.1379	463.4296	41.2186	4654776	11475.8389	926.8592	926.86	2.008127338	
	843.15	2164.2825	459.366	42.394	4712508.5	11475.8389	918.732	918.73	1.951500997	
	843.3	2172.002	454.9677	43.3604	4774116	11475.8389	909.9354	909.94	1.948557091	
	843.45	2170.063	456.0809	42.0674	4758135	11475.8389	912.1618	912.16	1.97085937	
	843.6	2175.2493	453.125	41.1789	4800618.5	11475.8389	906.25	906.25	1.95944532	
	843.7501	2176.5784	452.3802	40.9201	4811440	11475.8389	904.7604	904.76	2.089625825	
	843.9	2174.304	453.6815	41.78	4792580.5	11475.8389	907.363	907.36	2.032715609	
	844.05	2168.4146	457.0037	43.3024	4745555.5	11475.8389	914.0074	914.01	1.950276378	
	844.2	2155.9089	464.1182	43.8885	4645212	11475.8389	928.2364	928.24	2.025191313	
	844.35	2150.2644	467.3363	42.6894	4601259	11475.8389	934.6726	934.67	1.90787576	
	844.5001	2143.3191	471.28	39.6108	4547898.5	8262.3232	942.56	942.56	1.988176959	
	844.65	2143.9639	470.8899	36.9356	4553247	1267.1031	941.7798	941.78	1.938438397	
	844.8	2153.9797	465.2186	39.0984	4630149	866.2063	930.4372	930.44	2.005774451	
	844.95	2160.8149	461.357	42.5276	4683661.5	866.2063	922.714	922.71	2.055592035	
	845.1	2167.2346	457.6974	44.4888	4735272.5	866.2063	915.3948	915.39	1.976461046	
	845.2501	2174.219	453.7307	44.8956	4791878.5	866.2063	907.4614	907.46	2.02880182	
	845.4	2172.1274	454.9233	47.3118	4774723.5	866.2063	909.8466	909.85	2.087843235	
	845.55	2171.6116	455.201	47.7281	4770754	866.2063	910.402	910.4	2.040057473	
	845.7	2177.2319	452.0143	44.7602	4816734	866.2063	904.0286	904.03	2.017026739	
	845.85	2176.7258	452.3115	41.6946	4812451.5	866.2063	904.623	904.62	1.92561369	
	846.0001	2177.5757	451.8353	42.3306	4819404.5	866.2063	903.6706	903.67	2.093675625	
	846.15	2175.6299	452.9315	41.3424	4803479.5	866.2063	905.863	905.86	2.020886537	
	846.3	2170.6208	455.7774	38.5512	4762463.5	866.2063	911.5548	911.55	1.985763287	
	846.45	2168.1455	457.1606	38.9426	4742659	866.2063	914.3212	914.32	2.011699445	
	846.6	2162.0684	460.6124	37.6074	4694093	866.2063	921.2248	921.22	2.073043886	
	846.7501	2148.3289	468.4506	38.4171	4586032	866.2063	936.9012	936.9	1.997487019	
	846.9	2150.0652	467.4542	40.3323	4599531	866.2063	934.9084	934.91	2.01113786	
	847.05	2154.364	464.9933	42.1806	4633113	866.2063	929.9866	929.99	2.098350516	
	847.2	2158.1028	462.8967	40.9281	4662228	866.2063	925.7934	925.79	2.097323278	
	847.35	2172.759	454.5779	39.3994	4779730.5	866.2063	909.1558	909.16	2.048637297	
	847.5001	2177.0996	452.0615	38.6202	4815937.5	866.2063	904.123	904.12	2.079531186	
	847.65	2176.5	452.4393	39.22	4810590	866.2063	904.8786	904.88	2.050052087	
	847.8	2174.4419	453.5791	41.1801	4793964.5	866.2063	907.1582	907.16	2.046629929	
	847.95	2169.4683	456.4419	42.8349	4753008	866.2063	912.8838	912.88	2.076660456	
	848.1	2157.4663	463.2327	41.8108	4657490.5	866.2063	926.4654	926.47	1.925270592	
	848.2501	2150.3574	467.2831	42.0768	4601859	866.2063	934.5662	934.57	1.946640464	
	848.4	2148.98	468.0334	45.8913	4591510.5	866.2063	936.0668	936.07	1.982096232	
	848.55	2152.9514	465.7842	46.22	4622224.5	866.2063	931.5684	931.57	1.981608144	
	848.7	2141.9595	472.0254	44.0117	4537960	866.2063	944.0508	944.05	1.964517452	
	848.85	2144.4014	470.6735	38.5542	4556048.5	-2462.5876	941.347	941.35	1.958656904	
	849.0001	2151.999	466.3376	34.5336	4614761	-7421.0776	932.6752	932.68	1.988199521	
	849.15	2161.6887	460.8611	34.5263	4690674.5	-8184.2656	921.7222	921.72	2.002922344	
	849.3	2170.9277	455.5912	34.6218	4765207.5	-8184.2656	911.1824	911.18	2.087229273	
	849.45	2166.9504	457.8391	35.5239	4733072	-8184.2656	915.6782	915.68	2.095612263	
	849.6	2150.6506	467.1211	37.77	4604634	-8184.2656	934.2422	934.24	1.93419389	
	849.7501	2151.3201	466.7392	40.8426	4609317	-8184.2656	933.4784	933.48	2.063716798	
	849.9	2146.5417	469.4487	42.9485	4572585	-8184.2656	938.8974	938.9	2.085597134	
	850.05	2144.896	470.3695	42.4772	4560024.5	-8184.2656	940.739	940.74	1.942924073	
