~VERSION	INFORMATION									
	VERS.	2	:	CWLS	LOG	ASCII	STANDARD	-	VERSION	2
	WRAP.	NO	:	ONE	LINE	PER	DEPTH	STEP		
#										
~Well	Information	Section								
#MNEM	.UNIT	DATA	DESCRIPTION							
#-----	-----	--------	--------------							
	STRT	.M	30	:	START	DEPTH				
	STOP	.M	2140	:	END	DEPTH				
	STEP	.M	0.15	:	INCREMENT	DEPTH				
	NULL	.	-999.25	:	NULL	VALUE				
	COMP	.	:							
	WELL	.	F03-2	:	WELL	NAME				
	EKB	.M	30	:	KELLY	BUSHING	ELEVATION			
	EGL	.M	0	:	GROUND	LEVEL	ELEVATION			
	EPD	.M	0	:	PERMANENT	DATUM	ELEVATION			
	FLD	.	:							
	LOC	.	X	=	619101	Y	=	6089491.0000:	WELL	LOCATION
	PROV	.	:							
	SRVC	.	:							
	PROV	.	:							
	DATE	.	:							
	API	.	:							
#										
~Curve	Information	Section								
#MNEM	.UNIT	Curve	#DESCRIPTION							
#-----	-----	----	--------------							
	DEPTH	.M	:	1	DEPTH					
	RHOB	.kg/m3	:	2	Density					
	DT	.us/m	:	3	Sonic					
	GR	.API	:	4	Gamma	Ray				
	AI	.(m/s)*(kg/m3)	:	5	P-Impedance					
	AI_rel	.(m/s)*(kg/m3)	:	6	P-Impedance_rel					
	DTS	.us/m	:	3	Shear	Delta	Time			
	PHIE	.fraction	:	7	Porositykouh					
~A	(ASCII	LOG	DATA)							
# ...
	1376.1001	2040.088	529.9228	56.6289	3849832.5	-108280.5156	1059.8456	1059.85	2.050550509	
	1376.25	1982.1505	562.8188	55.855	3542180.25	-108280.5156	1125.6376	1125.64	2.06904248	
	1376.4	1915.0513	600.9398	58.2515	3186874.25	-108280.5156	1201.8796	1201.88	1.91883527	
	1376.55	1910.3527	603.6289	62.3228	3164781.25	-108280.5156	1207.2578	1207.26	2.009696459	
	1376.7001	1915.199	600.8766	64.0844	3187438.5	-108280.5156	1201.7532	1201.75	1.936845837	
	1376.8501	1988.4066	559.2814	63.8703	3590350	-108280.5156	1118.5628	1118.56	1.93257113	
	1377	2074.3877	510.436	62.4081	4064229.75	-108280.5156	1020.872	1020.87	1.998659204	
	1377.15	2072.5244	511.4991	60.6748	4052190.75	-108280.5156	1022.9982	1023	2.058222962	
	1377.3	2080.2681	507.1007	63.1338	4102281	-108280.5156	1014.2014	1014.2	1.971603257	
	1377.4501	2074.5928	510.3183	62.7781	4065580	-104994.6719	1020.6366	1020.64	2.09319259	
	1377.6001	2071.2683	512.2173	59.5182	4044062.5	-98697.8438	1024.4346	1024.43	1.936354579	
	1377.75	2080.3665	507.0476	59.9806	4102902.75	-97517.25	1014.0952	1014.1	1.934486755	
	1377.9	2076.5105	509.2476	60.2484	4077781.75	-97517.25	1018.4952	1018.5	2.048229649	
	1378.05	2070.7412	512.5251	59.4813	4040307.5	-97517.25	1025.0502	1025.05	1.937711167	
	1378.2001	2076.4841	509.256	59.7101	4077590	-97517.25	1018.512	1018.51	1.994286472	
	1378.3501	2079.7581	507.378	58.6602	4099170	-97517.25	1014.756	1014.76	2.064011215	
	1378.5	2075.1592	509.9792	58.7882	4069257.25	-97517.25	1019.9584	1019.96	2.013541961	
	1378.65	2082.7358	505.6686	56.4087	4118778	-97517.25	1011.3372	1011.34	1.912150959	
	1378.8	2083.179	505.4231	54.1575	4121695.5	-97517.25	1010.8462	1010.85	2.056425932	
	1378.9501	2087.3057	503.1089	55.863	4148819	-97517.25	1006.2178	1006.22	2.063119361	
	1379.1001	2083.311	505.3409	57.7195	4122784	-97517.25	1010.6818	1010.68	2.014336692	
	1379.25	2071.7021	511.9468	56.8749	4046735.75	-97517.25	1023.8936	1023.89	2.095229974	
	1379.4	2068.8137	513.5967	60.2411	4028121.5	-97517.25	1027.1934	1027.19	2.045341411	
	1379.55	2072.4104	511.5508	59.0053	4051293	-97517.25	1023.1016	1023.1	2.086568057	
	1379.7001	2066.9404	514.6669	59.3492	4016240.25	-97517.25	1029.3338	1029.33	2.032477748	
	1379.8501	2081.5012	506.3928	52.4027	4110674.75	-97517.25	1012.7856	1012.79	1.910291032	
	1380	2095.7922	498.2455	54.7328	4206513.5	-97517.25	996.491	996.49	2.024742069	
	1380.15	2081.3127	506.4877	60.5554	4109307	-97517.25	1012.9754	666.67	2.00470716	
	1380.3	2082.6423	505.7531	64.8936	4117903.5	-97517.25	1011.5062	1011.51	2.026456386	
	1380.4501	2082.6912	505.7111	65.5516	4118397	-97517.25	1011.4222	1011.42	2.080851134	
	1380.6001	2070.6821	512.5157	61.9602	4040251.75	-97517.25	1025.0314	1025.03	1.983541132	
	1380.75	2080.4282	507.0074	62.2487	4103365.25	-97517.25	1014.0148	1014.01	2.012430635	
	1380.9	2067.3999	514.3737	56.85	4019257	-97517.25	1028.7474	1028.75	1.969275241	
	1381.05	2073.2	511.1309	60.11	4056103.75	-97517.25	1022.2618	1022.26	1.911016607	
	1381.2001	2072.4158	511.5548	61.8847	4051209.5	-97517.25	1023.1096	1023.11	1.933447608	
	1381.3501	2066.0149	515.1786	62.6262	4010298.25	-94559.2812	1030.3572	1030.36	1.919785882	
	1381.5	2059.9282	518.6637	61.684	3971620.5	-41517.1562	1037.3274	1037.33	2.000477256	
	1381.65	2064.5464	516.0176	57.7569	4000935	-38558.1953	1032.0352	1032.04	1.917244198	
	1381.8	2074.0105	510.6518	55.2806	4061548.25	-38558.1953	1021.3036	1021.3	2.010888931	
	1381.9501	2074.8	510.2044	53.838	4066605.75	-38558.1953	1020.4088	1020.41	2.09765427	
	1382.1001	2067.4387	514.3586	56.884	4019498	-38558.1953	1028.7172	1028.72	1.939324258	
	1382.25	2074.0454	510.6031	59.1373	4062014.75	-38558.1953	1021.2062	1021.21	1.905628137	
	1382.4	2068.2009	513.9452	60.2821	4024227	-38558.1953	1027.8904	1027.89	2.089580021	
	1382.55	2071.791	511.9056	56.3114	4047244.25	-38558.1953	1023.8112	1023.81	2.00071829	
	1382.7001	2075.8987	509.5732	52.1837	4073815.5	-38558.1953	1019.1464	1019.15	1.938389127	
	1382.8501	2072.1606	511.7095	52.2491	4049521	-38558.1953	1023.419	1023.42	1.960192033	
	1383	2072.7537	511.3484	56.5033	4053511	-38558.1953	1022.6968	1022.7	2.05956487	
	1383.15	2075.3643	509.8878	58.7981	4070247	-38558.1953	1019.7756	1019.78	1.916504683	
	1383.3	2076.8359	509.0659	55.9201	4079701	-38558.1953	1018.1318	1018.13	2.001406703	
	1383.4501	2085.0967	504.3441	56.3957	4134443	-38558.1953	1008.6882	1008.69	1.972185146	
	1383.6001	2089.864	501.6174	56.4035	4166262	-38558.1953	1003.2348	1003.23	2.01219022	
	1383.75	2090.3171	501.3783	57.2985	4169142.25	-38558.1953	1002.7566	1002.76	2.051717895	
	1383.9	2084.5845	504.6297	60.2249	4131023	-38558.1953	1009.2594	1009.26	2.094223064	
	1384.05	2078.699	507.9959	65.5918	4092001	-38558.1953	1015.9918	1015.99	2.050134978	
	1384.2001	2077.4304	508.7137	65.5056	4083693.5	-38558.1953	1017.4274	1017.43	1.941922962	
	1384.3501	2081.8694	506.1783	60.5747	4112991	-38558.1953	1012.3566	1012.36	2.05520036	
	1384.5	2085.5166	504.1089	57.5106	4137043.25	-38558.1953	1008.2178	1008.22	2.088246788	
	1384.65	2081.8213	506.2252	58.0627	4112535.25	-38558.1953	1012.4504	1012.45	2.079648932	
	1384.8	2077.739	508.5476	59.8569	4085640.5	-38558.1953	1017.0952	1017.1	1.932775127	
	1384.9501	2068.3137	513.8881	61.3226	4025209.25	-38558.1953	1027.7762	1027.78	1.952854278	
	1385.1001	2063.4043	516.6825	61.4573	3993572	-38558.1953	1033.365	1033.37	1.994199118	
	1385.25	2066.8079	514.7449	57.8064	4015242	-39645.5312	1029.4898	1029.49	1.981366848	
	1385.4	2063.5159	516.5964	55.4457	3994613.5	-42875.8125	1033.1928	1033.19	1.947507758	
	1385.55	2062.9556	516.9106	57.079	3991038.25	-44911.5703	1033.8212	1033.82	2.021484135	
	1385.7001	2065.8992	515.2492	59.451	4009519.25	-44911.5703	1030.4984	1030.5	2.093263389	
	1385.8501	2064.3201	516.1501	59.675	3999461.25	-44911.5703	1032.3002	1032.3	1.970882464	
	1386	2062.7534	517.0261	59.0006	3989655	-44911.5703	1034.0522	1034.05	2.084988402	
	1386.15	2061.356	517.8263	60.4097	3980789.5	-44911.5703	1035.6526	1035.65	2.036914005	
	1386.3	2060.3037	518.4295	60.5263	3974126.25	-44911.5703	1036.859	1036.86	2.08131472	
	1386.4501	2059.7998	518.6975	57.5031	3971100.5	-44911.5703	1037.395	1037.39	2.084484759	
	1386.6001	2060.2891	518.4248	53.5045	3974135.5	-44911.5703	1036.8496	1036.85	1.908974095	
	1386.75	2066.8794	514.6939	51.204	4016130.75	-44911.5703	1029.3878	1029.39	1.912694034	
	1386.9	2077.8433	508.475	51.0911	4086455	-44911.5703	1016.95	1016.95	1.933205576	
	1387.05	2086.6196	503.4778	50.3291	4144902	-44911.5703	1006.9556	1006.96	2.017345934	
	1387.2001	2097.7083	497.1602	50.6592	4219383.5	-44911.5703	994.3204	994.32	2.000949724	
	1387.3501	2091.5002	500.7088	51.3618	4177847.75	-44911.5703	1001.4176	1001.42	1.984396972	
	1387.5	2080.9683	506.7053	52.4174	4107114.75	-44911.5703	1013.4106	1013.41	1.924813357	
	1387.65	2083.561	505.2039	52.2392	4124867.5	-44911.5703	1010.4078	1010.41	2.05421753	
	1387.8	2069.3877	513.2704	56.3103	4031775.5	-44911.5703	1026.5408	1026.54	2.064061403	
	1387.9501	2070.4834	512.6591	60.5241	4038717.25	-44911.5703	1025.3182	1025.32	2.08754321	
	1388.1001	2072.5405	511.498	62.2572	4052135	-44911.5703	1022.996	1023	2.092916036	
	1388.25	2080.3098	507.0734	65.2856	4102690.75	-44911.5703	1014.1468	1014.15	2.09018447	
	1388.4	2074.9695	510.1213	68.092	4067684	-44911.5703	1020.2426	1020.24	1.993643324	
	1388.55	2082.741	505.6948	68.5683	4118618.75	-44911.5703	1011.3896	1011.39	1.968056704	
	1388.7001	2086.2368	503.7228	68.7681	4141708.5	-44911.5703	1007.4456	1007.45	1.91346547	
	1388.8501	2080.4885	506.9673	63.2789	4103821	-44911.5703	1013.9346	1013.93	1.935425747	
	1389	2083.3755	505.3073	64.1042	4123087	-44911.5703	1010.6146	1010.61	2.051380898	
	1389.15	2074.6602	510.2696	65.7071	4065813	-46600.0234	1020.5392	1020.54	2.09365208	
	1389.3	2075.5554	509.7741	63.751	4071521	-58526.3203	1019.5482	1019.55	1.969850835	
	1389.4501	2074.1997	510.5582	65.3207	4062617.75	-65550.1406	1021.1164	1021.12	1.982600089	
	1389.6001	2071.3083	512.1694	61.6966	4044188.5	-65550.1406	1024.3388	1024.34	1.90895138	
	1389.75	2069.3601	513.3098	62.3668	4031406	-65550.1406	1026.6196	1026.62	1.943159608	
