~VERSION	INFORMATION									
	VERS.	2	:	CWLS	LOG	ASCII	STANDARD	-	VERSION	2
	WRAP.	NO	:	ONE	LINE	PER	DEPTH	STEP		
#										
~Well	Information	Section								
#MNEM	.UNIT	DATA	DESCRIPTION							
#-----	-----	--------	--------------							
	STRT	.M	30	:	START	DEPTH				
	STOP	.M	2140	:	END	DEPTH				
	STEP	.M	0.15	:	INCREMENT	DEPTH				
	NULL	.	-999.25	:	NULL	VALUE				
	COMP	.	:							
	WELL	.	F03-2	:	WELL	NAME				
	EKB	.M	30	:	KELLY	BUSHING	ELEVATION			
	EGL	.M	0	:	GROUND	LEVEL	ELEVATION			
	EPD	.M	0	:	PERMANENT	DATUM	ELEVATION			
	FLD	.	:							
	LOC	.	X	=	619101	Y	=	6089491.0000:	WELL	LOCATION
	PROV	.	:							
	SRVC	.	:							
	PROV	.	:							
	DATE	.	:							
	API	.	:							
#										
~Curve	Information	Section								
#MNEM	.UNIT	Curve	#DESCRIPTION							
#-----	-----	----	--------------							
	DEPTH	.M	:	1	DEPTH					
	RHOB	.kg/m3	:	2	Density					
	DT	.us/m	:	3	Sonic					
	GR	.API	:	4	Gamma	Ray				
	AI	.(m/s)*(kg/m3)	:	5	P-Impedance					
	AI_rel	.(m/s)*(kg/m3)	:	6	P-Impedance_rel					
	DTS	.us/m	:	3	Shear	Delta	Time			
	PHIE	.fraction	:	7	Porositykouh					
~A	(ASCII	LOG	DATA)							
# ...
	1222.3501	2145.0066	470.3128	66.3557	4560829.5	-67297.5312	940.6256	940.63	1.913412249	
	1222.5	2154.845	464.732	66.2549	4637384.5	-67297.5312	929.464	929.46	2.097934455	
	1222.65	2158.272	462.7983	65.5336	4663570	-67297.5312	925.5966	925.6	1.934475875	
	1222.8	2159.5742	462.0599	63.5731	4673853	-67297.5312	924.1198	924.12	1.991906715	
	1222.9501	2168.5984	456.9147	59.3301	4746537	-67297.5312	913.8294	913.83	2.013369959	
	1223.1001	2179.2214	450.8905	56.8787	4833392.5	-67297.5312	901.781	901.78	2.081851135	
	1223.25	2183.1758	448.6618	58.2334	4865972.5	-67297.5312	897.3236	897.32	2.076300488	
	1223.4	2177.4893	451.8875	57.9563	4818921	-67297.5312	903.775	903.77	2.022672178	
	1223.55	2170.5857	455.7876	60.4681	4762318	-67297.5312	911.5752	911.58	2.032722143	
	1223.7001	2167.5862	457.49	63.4512	4738007.5	-67297.5312	914.98	914.98	2.073533622	
	1223.8501	2172.6257	454.627	64.9185	4779302.5	-67297.5312	909.254	909.25	1.934148184	
	1224	2182.3555	449.0805	67.5312	4859753	-67297.5312	898.161	898.16	1.903366346	
	1224.15	2188.2688	445.7344	66.8348	4909408.5	-67297.5312	891.4688	891.47	1.919403349	
	1224.3	2190.4768	444.485	65.6703	4928123.5	-67297.5312	888.97	888.97	1.94751399	
	1224.4501	2188.1069	445.813	68.1818	4908190.5	-67297.5312	891.626	891.63	1.933857494	
	1224.6001	2180.123	450.3546	70.2913	4841301.5	-67297.5312	900.7092	900.71	1.935270834	
	1224.75	2176.6462	452.3297	69.4749	4812310.5	-67297.5312	904.6594	904.66	2.033555558	
	1224.9	2176.6621	452.3103	70.3009	4812875	-67297.5312	904.6206	904.62	1.934645822	
	1225.05	2160.3276	461.5999	76.0011	4680905.5	-67297.5312	923.1998	923.2	2.002046826	
	1225.2001	2150.5933	467.1466	79.998	4603773	-67297.5312	934.2932	934.29	1.973401045	
	1225.3501	2154.3997	464.9723	79.367	4633399	-67297.5312	929.9446	929.94	2.020005021	
	1225.5	2148.9194	468.0929	80.4536	4591193.5	-67297.5312	936.1858	936.19	1.929428894	
	1225.65	2140.1506	473.0644	79.1744	4524027.5	-67297.5312	946.1288	946.13	1.980959245	
	1225.8	2142.9629	471.4569	75.1829	4545431	-67297.5312	942.9138	942.91	1.976902628	
	1225.9501	2143.5718	471.127	75.3077	4549984	-67297.5312	942.254	942.25	1.913963883	
	1226.1001	2141.5288	472.2734	71.7266	4534846.5	-67297.5312	944.5468	944.55	1.914969109	
	1226.25	2151.4678	466.6265	71.3463	4610691	-67297.5312	933.253	933.25	1.951514852	
	1226.4	2149.3284	467.8445	73.8782	4594128	-63040.293	935.689	935.69	2.096076323	
	1226.55	2145.7734	469.8723	80.0748	4566740.5	-45594.4219	939.7446	939.74	2.009199452	
	1226.7001	2141.2712	472.4516	81.476	4532325	-36396.0625	944.9032	944.9	1.915541773	
	1226.8501	2137.5024	474.5928	82.1245	4504039.5	-36396.0625	949.1856	949.19	1.913392047	
	1227	2146.5508	469.4353	83.8913	4572633	-36396.0625	938.8706	938.87	1.96151764	
	1227.15	2142.8706	471.5268	90.5045	4544636	-36396.0625	943.0536	943.05	2.05140639	
	1227.3	2134.7	476.1938	96.6251	4482838	-36396.0625	952.3876	952.39	2.041388821	
	1227.4501	2133.1963	477.0386	98.2425	4471912	-36396.0625	954.0772	954.08	1.96939071	
	1227.6001	2121.0649	483.9269	97.6539	4383038.5	-36396.0625	967.8538	967.85	1.928669034	
	1227.75	2125.342	481.4922	103.2857	4414128.5	-36396.0625	962.9844	962.98	1.999253253	
	1227.9	2133.5146	476.8666	106.4933	4474048.5	-36396.0625	953.7332	953.73	1.991657627	
	1228.05	2127.8115	480.1009	108.613	4432026.5	-36396.0625	960.2018	960.2	2.015357893	
	1228.2001	2134.4087	476.3378	106.3048	4480902.5	-36396.0625	952.6756	952.68	1.99322002	
	1228.3501	2145.5061	470.0154	108.3301	4564763.5	-36396.0625	940.0308	940.03	2.014471164	
	1228.5	2138.7998	473.8465	111.19	4513698	-36396.0625	947.693	947.69	2.0730833	
	1228.65	2146.3999	469.5132	116.76	4571543.5	-36396.0625	939.0264	939.03	1.988706764	
	1228.8	2149.1453	467.9893	115.2697	4592296.5	-36396.0625	935.9786	935.98	1.972080699	
	1228.9501	2138.7605	473.8432	111.8374	4513680	-36396.0625	947.6864	947.69	1.952507345	
	1229.1001	2135.0852	475.9576	108.2441	4485878.5	-36396.0625	951.9152	951.92	2.010677208	
	1229.25	2125.0925	481.6075	111.8329	4412557	-36396.0625	963.215	963.22	1.992234426	
	1229.4	2130.1978	478.7189	111.6675	4449813.5	-36396.0625	957.4378	957.44	2.057346969	
	1229.55	2123.0508	482.7755	112.7819	4397650.5	-36396.0625	965.551	965.55	2.063330097	
	1229.7001	2112.6213	488.7114	118.3644	4322938	-36396.0625	977.4228	977.42	2.089415837	
	1229.8501	2111.6602	489.264	124.403	4315993.5	-36396.0625	978.528	978.53	1.939206765	
	1230	2119.7297	484.6568	131.0202	4373764.5	-36396.0625	969.3136	969.31	1.936006912	
	1230.15	2128.8254	479.497	133.4543	4439803	-36396.0625	958.994	666.67	2.010322187	
	1230.3	2134.8928	476.0714	129.0714	4484436.5	-36396.0625	952.1428	952.14	1.919349112	
	1230.4501	2137.4336	474.6202	126.694	4503466.5	-36396.0625	949.2404	949.24	1.96336701	
	1230.6001	2139.6099	473.3828	126.968	4519838	-35982.6094	946.7656	946.77	2.025896464	
	1230.75	2137.0828	474.7978	128.507	4501061	-32286.4805	949.5956	949.6	2.024951655	
	1230.9	2145.5476	470.0039	127.5497	4565208.5	-31237.6562	940.0078	940.01	2.004185356	
	1231.05	2151.3877	466.6829	123.6399	4609984	-31237.6562	933.3658	933.37	2.021407311	
	1231.2001	2154.4368	464.975	125.3079	4633461	-31237.6562	929.95	929.95	1.940992233	
	1231.3501	2157.8162	463.0421	128.1436	4660114.5	-31237.6562	926.0842	926.08	1.941636785	
	1231.5	2159.5244	462.0522	126.629	4673769	-31237.6562	924.1044	924.1	1.903021107	
	1231.65	2158.4397	462.6722	120.858	4665167.5	-31237.6562	925.3444	925.34	2.091530404	
	1231.8	2150.6733	467.0788	119.9562	4604766	-31237.6562	934.1576	934.16	1.970494045	
	1231.9501	2152.1104	466.2881	118.7806	4615541.5	-31237.6562	932.5762	932.58	1.975581519	
	1232.1001	2147.9993	468.6191	118.105	4583940.5	-31237.6562	937.2382	937.24	1.991134962	
	1232.25	2140.9529	472.6269	119.9862	4529951	-31237.6562	945.2538	945.25	2.021236551	
	1232.4	2147.0156	469.1839	122.7131	4576453	-31237.6562	938.3678	938.37	2.093066914	
	1232.55	2154.9106	464.696	124.5436	4637295	-31237.6562	929.392	929.39	2.010223711	
	1232.7001	2160.4863	461.5137	127.4079	4681408	-31237.6562	923.0274	923.03	2.004484318	
	1232.8501	2158.262	462.7687	130.005	4664006.5	-31237.6562	925.5374	925.54	1.978609269	
	1233	2158.687	462.5493	129.2565	4667110.5	-31237.6562	925.0986	925.1	2.02640128	
	1233.15	2157.1887	463.4088	124.942	4655314	-31237.6562	926.8176	926.82	1.919681532	
	1233.3	2155.7029	464.2474	122.6655	4643560	-31237.6562	928.4948	928.49	1.940255082	
	1233.4501	2151.2581	466.7802	125.1406	4609360	-31237.6562	933.5604	933.56	1.936952879	
	1233.6001	2147.1902	469.0841	127.9066	4577617	-31237.6562	938.1682	938.17	1.983332525	
	1233.75	2146.9382	469.225	129.2825	4575810	-31237.6562	938.45	938.45	2.016856556	
	1233.9	2141.4805	472.34	127.4701	4533777.5	-31237.6562	944.68	944.68	1.947508194	
	1234.05	2148.8977	468.1089	122.1926	4591112	-31237.6562	936.2178	936.22	2.067335182	
	1234.2001	2160.1223	461.7156	117.0504	4678560	-31237.6562	923.4312	923.43	1.917144606	
	1234.3501	2162.0183	460.6402	113.3558	4693557	-31237.6562	921.2804	921.28	2.010491299	
	1234.5	2159.0503	462.3268	114.1792	4669966	-31237.6562	924.6536	924.65	2.057681909	
	1234.65	2152.4558	466.0858	118.8614	4618826.5	-31237.6562	932.1716	932.17	2.012501754	
	1234.8	2142.2883	471.869	121.795	4540027	-31237.6562	943.738	943.74	1.902626843	
	1234.9501	2146.0354	469.7451	122.8959	4568561.5	-12334.6221	939.4902	939.49	1.914199516	
	1235.1001	2149.5845	467.7268	126.1397	4595812.5	27312.0156	935.4536	935.45	1.958819434	
	1235.25	2152.5212	466.0574	127.1725	4618723.5	29020.8906	932.1148	932.11	1.950015796	
	1235.4	2161.4832	460.9452	125.7534	4689449	29020.8906	921.8904	921.89	1.943168353	
	1235.55	2168.5093	456.9812	124.2212	4745296.5	29020.8906	913.9624	913.96	1.988712177	
	1235.7001	2168.4636	457.0003	123.4286	4745030	29020.8906	914.0006	914	1.906983039	
	1235.8501	2171.314	455.3585	123.3423	4768367.5	29020.8906	910.717	910.72	1.924549361	
	1236	2168.656	456.8971	119.0316	4746552	29020.8906	913.7942	913.79	1.995884741	
	1236.15	2162.3391	460.4521	118.4201	4696195	29020.8906	920.9042	920.9	1.934344994	
	1236.3	2158.1462	462.8619	118.8567	4662682	29020.8906	925.7238	925.72	2.062963712	
