~VERSION	INFORMATION									
	VERS.	2	:	CWLS	LOG	ASCII	STANDARD	-	VERSION	2
	WRAP.	NO	:	ONE	LINE	PER	DEPTH	STEP		
#										
~Well	Information	Section								
#MNEM	.UNIT	DATA	DESCRIPTION							
#-----	-----	--------	--------------							
	STRT	.M	30	:	START	DEPTH				
	STOP	.M	2140	:	END	DEPTH				
	STEP	.M	0.15	:	INCREMENT	DEPTH				
	NULL	.	-999.25	:	NULL	VALUE				
	COMP	.	:							
	WELL	.	F03-2	:	WELL	NAME				
	EKB	.M	30	:	KELLY	BUSHING	ELEVATION			
	EGL	.M	0	:	GROUND	LEVEL	ELEVATION			
	EPD	.M	0	:	PERMANENT	DATUM	ELEVATION			
	FLD	.	:							
	LOC	.	X	=	619101	Y	=	6089491.0000:	WELL	LOCATION
	PROV	.	:							
	SRVC	.	:							
	PROV	.	:							
	DATE	.	:							
	API	.	:							
#										
~Curve	Information	Section								
#MNEM	.UNIT	Curve	#DESCRIPTION							
#-----	-----	----	--------------							
	DEPTH	.M	:	1	DEPTH					
	RHOB	.kg/m3	:	2	Density					
	DT	.us/m	:	3	Sonic					
	GR	.API	:	4	Gamma	Ray				
	AI	.(m/s)*(kg/m3)	:	5	P-Impedance					
	AI_rel	.(m/s)*(kg/m3)	:	6	P-Impedance_rel					
	DTS	.us/m	:	3	Shear	Delta	Time			
	PHIE	.fraction	:	7	Porositykouh					
~A	(ASCII	LOG	DATA)							
# ...
	1334.4	2094.5396	498.9692	77.8871	4197759	-70575.625	997.9384	997.94	1.91512353	
	1334.55	2090.9067	501.0472	71.7811	4173082.25	-70575.625	1002.0944	1002.09	2.089703376	
	1334.7001	2087.3179	503.0887	67.8522	4149018	-70575.625	1006.1774	1006.18	2.010186123	
	1334.8501	2090.6963	501.1528	65.2224	4171795.5	-70575.625	1002.3056	1002.31	1.936445479	
	1335	2093.3857	499.6393	65.022	4189800.5	-70575.625	999.2786	999.28	2.09547901	
	1335.15	2101.6111	494.9627	63.335	4246109	-70575.625	989.9254	989.93	1.961026512	
	1335.3	2099.241	496.3239	65.2675	4229613	-70575.625	992.6478	992.65	2.021087766	
	1335.4501	2102.96	494.1854	66.958	4255458.5	-70575.625	988.3708	988.37	1.964213215	
	1335.6001	2108.4434	491.0796	67.5769	4293527.5	-70575.625	982.1592	982.16	1.967650481	
	1335.75	2104.0186	493.5946	66.1001	4262732.5	-70575.625	987.1892	987.19	2.064634842	
	1335.9	2102.9797	494.2049	62.7108	4255281	-70575.625	988.4098	988.41	2.064414754	
	1336.05	2106.1084	492.4359	63.9527	4276943.5	-70575.625	984.8718	984.87	2.093208267	
	1336.2001	2109.7222	490.3497	64.9451	4302507.5	-70575.625	980.6994	980.7	2.090066902	
	1336.3501	2114.3066	487.7367	67.032	4334980.5	-70575.625	975.4734	975.47	1.97740607	
	1336.5	2114.8997	487.4149	69.474	4339017	-70575.625	974.8298	974.83	2.076647953	
	1336.65	2109.2383	490.6266	68.6227	4299185	-70575.625	981.2532	981.25	2.018225345	
	1336.8	2110.342	489.9987	70.5876	4306899.5	-70575.625	979.9974	980	1.948495262	
	1336.9501	2107.106	491.8338	72.17	4284326.5	-70575.625	983.6676	983.67	2.038439218	
	1337.1001	2107.0171	491.8908	68.3884	4283559.5	-70575.625	983.7816	983.78	2.077665147	
	1337.25	2110.0393	490.1655	68.6643	4304755	-70575.625	980.331	980.33	1.92535257	
	1337.4	2108.3481	491.1259	70.3276	4292921	-70575.625	982.2518	982.25	1.988265237	
	1337.55	2101.218	495.1872	70.3979	4243460	-48024.8906	990.3744	990.37	2.088099005	
	1337.7001	2091.2732	500.8345	69.2115	4175789.75	-28271.1172	1001.669	1001.67	1.941048969	
	1337.8501	2088.509	502.4169	66.3217	4156953.5	-26501.4453	1004.8338	1004.83	1.978506178	
	1338	2092.2263	500.2948	61.9642	4182012.5	-26501.4453	1000.5896	1000.59	2.026662038	
	1338.15	2097.5503	497.2719	57.1096	4218215	-26501.4453	994.5438	994.54	1.911927491	
	1338.3	2104.8005	493.1542	56.409	4268152	-26501.4453	986.3084	986.31	2.046380645	
	1338.4501	2111.417	489.3922	58.373	4314435	-26501.4453	978.7844	978.78	1.996883823	
	1338.6001	2110.8408	489.7269	59.7901	4310380.5	-26501.4453	979.4538	979.45	2.081846568	
	1338.75	2103.853	493.6736	61.3072	4261687	-26501.4453	987.3472	987.35	1.909051436	
	1338.9	2102.2292	494.5946	62.7244	4250435.5	-26501.4453	989.1892	989.19	1.913413646	
	1339.05	2108.2832	491.1562	65.387	4292672	-26501.4453	982.3124	982.31	2.008972922	
	1339.2001	2118.7078	485.2533	66.1433	4366478.5	-26501.4453	970.5066	970.51	1.995301416	
	1339.3501	2130.4568	478.5831	62.8187	4451868	-26501.4453	957.1662	957.17	1.900261091	
	1339.5	2133.6719	476.7395	59.8859	4475832.5	-26501.4453	953.479	953.48	2.065307319	
	1339.65	2121.5298	483.6449	60.2674	4386870	-26501.4453	967.2898	967.29	2.012843642	
	1339.8	2107.3179	491.7341	63.5988	4285989	-26501.4453	983.4682	983.47	2.059876023	
	1339.9501	2091.1062	500.9257	67.6707	4174860.25	-26501.4453	1001.8514	1001.85	2.00746014	
	1340.1001	2083.0425	505.5329	70.3298	4120619	-26501.4453	1011.0658	1011.07	2.079825499	
	1340.25	2089.2795	501.9643	72.646	4162209	-26501.4453	1003.9286	1003.93	2.051197063	
	1340.4	2094.144	499.1922	72.6314	4195824	-26501.4453	998.3844	998.38	1.924987319	
	1340.55	2111.364	489.4348	67.8862	4313884.5	-26501.4453	978.8696	978.87	1.940310717	
	1340.7001	2112.3984	488.8375	62.5611	4321270	-26501.4453	977.675	977.67	1.977510862	
	1340.8501	2112.436	488.8127	60.7987	4321579.5	-26501.4453	977.6254	977.63	2.007659937	
	1341	2109.6389	490.4202	66.0615	4301698.5	-26501.4453	980.8404	980.84	2.098332043	
	1341.15	2108.3267	491.1583	67.8462	4292561.5	-26501.4453	982.3166	982.32	2.043999469	
	1341.3	2107.4358	491.6736	64.9618	4286250.5	-26501.4453	983.3472	983.35	1.94049407	
	1341.4501	2106.3682	492.2892	62.9972	4278746.5	-25705.5664	984.5784	984.58	1.959050796	
	1341.6001	2100.9609	495.3395	62.0206	4241503.5	-19036.8945	990.679	990.68	1.991325594	
	1341.75	2094.7241	498.8573	63.5803	4199048	-6583.3271	997.7146	997.71	2.08443573	
	1341.9	2097.3113	497.3918	64.5725	4216657	-6583.3271	994.7836	994.78	1.946238867	
	1342.05	2103.8213	493.6862	59.6502	4261468	-6583.3271	987.3724	987.37	1.964979348	
	1342.2001	2100.1201	495.8322	60.6445	4235594.5	-6583.3271	991.6644	991.66	1.961117653	
	1342.3501	2109.6914	490.3723	59.9456	4302226	-6583.3271	980.7446	980.74	2.003542319	
	1342.5	2107.9971	491.3589	56.7774	4290211.5	-6583.3271	982.7178	982.72	2.019940034	
	1342.65	2125.8657	481.2135	47.6578	4417729.5	-6583.3271	962.427	962.43	1.959104903	
	1342.8	2116.3	486.6358	49.64	4348837.5	-6583.3271	973.2716	973.27	2.07502728	
	1342.9501	2119.7	484.6755	54.63	4373441.5	-6583.3271	969.351	969.35	2.006763847	
	1343.1001	2122.249	483.256	56.9733	4391564.5	-6583.3271	966.512	966.51	2.048768776	
	1343.25	2124.0413	482.2243	53.7694	4404675	-6583.3271	964.4486	964.45	1.913277268	
	1343.4	2123.4375	482.5526	49.4584	4400427	-6583.3271	965.1052	965.11	2.008154915	
	1343.55	2122.0935	483.3077	50.3773	4390772	-6583.3271	966.6154	966.62	2.079041279	
	1343.7001	2108.748	490.9288	51.5551	4295551.5	-6583.3271	981.8576	981.86	2.093120909	
	1343.8501	2100.5742	495.5818	52.0643	4238645.5	-6583.3271	991.1636	991.16	2.04645729	
	1344	2091.4563	500.7479	54.3291	4176732.75	-6583.3271	1001.4958	1001.5	1.97118021	
	1344.15	2083.3809	505.3062	59.766	4123063	-6583.3271	1010.6124	1010.61	2.045772986	
	1344.3	2082.5562	505.7822	59.7918	4117496.5	-6583.3271	1011.5644	1011.56	2.036297539	
	1344.4501	2082.1797	506.0134	61.61	4114870.5	-6583.3271	1012.0268	1012.03	1.944103947	
	1344.6001	2084.8066	504.5349	64.6128	4132147.75	-6583.3271	1009.0698	1009.07	1.915873077	
	1344.75	2091.1296	500.9133	65.5128	4174694.5	-6583.3271	1001.8266	1001.83	1.938177888	
	1344.9	2082.5862	505.7884	65.5821	4117706	-6583.3271	1011.5768	1011.58	2.006088213	
	1345.05	2087.0188	503.2577	63.986	4147130	-6583.3271	1006.5154	1006.52	1.911774422	
	1345.2001	2084.6921	504.5649	64.1052	4131709	-6583.3271	1009.1298	1009.13	1.992559663	
	1345.3501	2087.0762	503.2157	58.8922	4147515.25	-6583.3271	1006.4314	1006.43	1.91022132	
	1345.5	2091.0906	500.9277	54.7675	4174457	-6583.3271	1001.8554	1001.86	2.051572781	
	1345.65	2093.4434	499.6178	52.0562	4190095.5	-43967.0391	999.2356	999.24	2.063796925	
	1345.8	2094.4158	499.0761	52.1535	4196586.5	-68811.2266	998.1522	998.15	2.009852317	
	1345.9501	2105.7556	492.6108	54.227	4275153	-72951.7109	985.2216	985.22	1.946902502	
	1346.1001	2105.1196	492.9833	54.0554	4270308.5	-72951.7109	985.9666	985.97	1.901512596	
	1346.25	2108.1855	491.2423	53.9484	4291702.5	-72951.7109	982.4846	982.48	2.00398833	
	1346.4	2097.5286	497.2761	53.7716	4218947	-72951.7109	994.5522	994.55	2.079516363	
	1346.55	2089.6294	501.7489	52.1719	4164692.5	-72951.7109	1003.4978	1003.5	1.947960714	
	1346.7001	2092.8423	499.9467	50.1631	4186174	-72951.7109	999.8934	999.89	1.956300926	
	1346.8501	2098.8667	496.5167	52.4849	4227277.5	-72951.7109	993.0334	993.03	2.062870099	
	1347	2096.9824	497.5685	56.5237	4214598.5	-72951.7109	995.137	995.14	1.917616071	
	1347.15	2092.8625	499.9373	55.1597	4186252	-72951.7109	999.8746	999.87	2.013209095	
	1347.3	2092.5	500.1637	53.0988	4183630.5	-72951.7109	1000.3274	1000.33	2.090858234	
	1347.4501	2086.147	503.7477	56.2062	4141529.25	-72951.7109	1007.4954	1007.5	1.906428243	
	1347.6001	2085.0537	504.3651	58.85	4134184	-72951.7109	1008.7302	1008.73	1.996550399	
	1347.75	2084.3945	504.739	59.3895	4129875.5	-72951.7109	1009.478	1009.48	1.990443293	
	1347.9	2079.4939	507.5089	58.795	4097458.5	-72951.7109	1015.0178	1015.02	1.952703213	
	1348.05	2084.2524	504.815	55.3216	4128878	-72951.7109	1009.63	1009.63	2.059170638	
	1348.2001	2084.9824	504.4198	52.8384	4133574.25	-72951.7109	1008.8396	1008.84	1.953657692	
	1348.3501	2083.4495	505.2943	53.4973	4123363.25	-72951.7109	1010.5886	1010.59	2.049584123	
