~VERSION	INFORMATION									
	VERS.	2	:	CWLS	LOG	ASCII	STANDARD	-	VERSION	2
	WRAP.	NO	:	ONE	LINE	PER	DEPTH	STEP		
#										
~Well	Information	Section								
#MNEM	.UNIT	DATA	DESCRIPTION							
#-----	-----	--------	--------------							
	STRT	.M	30	:	START	DEPTH				
	STOP	.M	2140	:	END	DEPTH				
	STEP	.M	0.15	:	INCREMENT	DEPTH				
	NULL	.	-999.25	:	NULL	VALUE				
	COMP	.	:							
	WELL	.	F03-2	:	WELL	NAME				
	EKB	.M	30	:	KELLY	BUSHING	ELEVATION			
	EGL	.M	0	:	GROUND	LEVEL	ELEVATION			
	EPD	.M	0	:	PERMANENT	DATUM	ELEVATION			
	FLD	.	:							
	LOC	.	X	=	619101	Y	=	6089491.0000:	WELL	LOCATION
	PROV	.	:							
	SRVC	.	:							
	PROV	.	:							
	DATE	.	:							
	API	.	:							
#										
~Curve	Information	Section								
#MNEM	.UNIT	Curve	#DESCRIPTION							
#-----	-----	----	--------------							
	DEPTH	.M	:	1	DEPTH					
	RHOB	.kg/m3	:	2	Density					
	DT	.us/m	:	3	Sonic					
	GR	.API	:	4	Gamma	Ray				
	AI	.(m/s)*(kg/m3)	:	5	P-Impedance					
	AI_rel	.(m/s)*(kg/m3)	:	6	P-Impedance_rel					
	DTS	.us/m	:	3	Shear	Delta	Time			
	PHIE	.fraction	:	7	Porositykouh					
~A	(ASCII	LOG	DATA)							
# ...
	1488	2089.8684	501.6517	51.4895	4165996.5	62303.0156	1003.3034	1003.3	2.076384615	
	1488.15	2085.123	504.3494	51.9289	4134365	62303.0156	1008.6988	1008.7	2.031765512	
	1488.3	2093.842	499.3941	49.1181	4193079.25	62303.0156	998.7882	998.79	1.976249745	
	1488.4501	2097.3401	497.3843	50.0855	4216739.5	62303.0156	994.7686	994.77	2.065146013	
	1488.6001	2092.2261	500.2995	50.7809	4182029	62303.0156	1000.599	1000.6	2.046128296	
	1488.75	2093.124	499.7795	53.9259	4188127.75	62303.0156	999.559	999.56	2.043502692	
	1488.9	2098.2319	496.8944	55.8198	4222745	62303.0156	993.7888	993.79	1.919155546	
	1489.05	2097.0945	497.5389	53.8055	4214972.5	62303.0156	995.0778	995.08	1.97150913	
	1489.2001	2091.4658	500.7246	53.6638	4176948	62303.0156	1001.4492	1001.45	2.036902628	
	1489.3501	2094.7876	498.8429	56.485	4199439.5	61173.5547	997.6858	997.69	2.098422187	
	1489.5	2097.5327	497.2813	58.6205	4218002.5	60446.8906	994.5626	994.56	2.001475557	
	1489.65	2097.2173	497.4601	58.9088	4215850.5	60423	994.9202	994.92	1.992490748	
	1489.8	2094.948	498.7428	56.5285	4200489	60423	997.4856	997.49	1.950902723	
	1489.9501	2091.2378	500.8578	53.3227	4175336	60423	1001.7156	1001.72	1.96626478	
	1490.1001	2088.7275	502.2902	51.0403	4158413.75	60423	1004.5804	1004.58	2.074669191	
	1490.25	2082.3152	505.9272	48.9867	4116047.25	60423	1011.8544	1011.85	1.946206167	
	1490.4	2079.8853	507.3097	49.4098	4099881	60423	1014.6194	1014.62	1.907709622	
	1490.55	2078.5476	508.0703	52.2325	4091174.5	60423	1016.1406	1016.14	1.965132239	
	1490.7001	2075.5603	509.7624	52.5374	4071630.25	60423	1019.5248	1019.52	2.057138552	
	1490.8501	2076.9224	508.9788	52.0138	4080568.75	60423	1017.9576	1017.96	1.954715313	
	1491	2078.6414	507.9933	51.7413	4091884	60423	1015.9866	1015.99	2.082483251	
	1491.15	2084.521	504.6563	51.0607	4130754	60423	1009.3126	1009.31	2.008920929	
	1491.3	2090.0347	501.5397	51.2501	4167237	60423	1003.0794	1003.08	1.948998599	
	1491.4501	2089.5996	501.7899	50.6724	4164292	60423	1003.5798	1003.58	2.003771233	
	1491.6001	2089.6045	501.7836	51.9474	4164355.25	60423	1003.5672	1003.57	1.917548409	
	1491.75	2088.5576	502.4015	53.3364	4157179.5	60423	1004.803	1004.8	2.064395036	
	1491.9	2083.5083	505.2562	55.4572	4123746.25	60423	1010.5124	1010.51	2.066012283	
	1492.05	2079.6006	507.4506	57.0026	4098139.5	60423	1014.9012	1014.9	1.966232429	
	1492.2001	2081.4734	506.3802	55.2037	4110501.75	60423	1012.7604	1012.76	2.017229816	
	1492.3501	2080.6182	506.8707	54.2641	4104919.5	60423	1013.7414	1013.74	2.071611708	
	1492.5	2076.9338	508.9701	51.796	4080707.75	60423	1017.9402	1017.94	2.081121684	
	1492.65	2082.8149	505.6466	52.5785	4119179	60423	1011.2932	1011.29	1.910922312	
	1492.8	2085.9976	503.8463	53.9674	4140217.5	60423	1007.6926	1007.69	2.049997727	
	1492.9501	2083.1326	505.4615	52.9277	4121387.5	60423	1010.923	1010.92	2.087300312	
	1493.1001	2090.6458	501.1988	51.1221	4171291	60423	1002.3976	1002.4	1.954524228	
	1493.25	2090.2449	501.4024	50.9761	4168797.75	57338.4961	1002.8048	1002.8	2.099778599	
	1493.4	2091.2117	500.8769	52.3858	4175107.25	45307.9414	1001.7538	1001.75	1.923698382	
	1493.55	2093.4854	499.5801	53.0149	4190498	44428.0547	999.1602	999.16	2.00392476	
	1493.7001	2096.5212	497.8624	50.6668	4211067	44428.0547	995.7248	995.72	1.98933644	
	1493.8501	2100.272	495.7124	48.5933	4236876	44428.0547	991.4248	991.42	1.940445541	
	1494	2098.8042	496.575	50.6814	4226649	44428.0547	993.15	993.15	2.068498684	
	1494.15	2089.9319	501.5848	50.5159	4166656.75	44428.0547	1003.1696	1003.17	2.06991914	
	1494.3	2090.8269	501.0872	53.2138	4172610.25	44428.0547	1002.1744	1002.17	2.023430386	
	1494.4501	2098.6641	496.6323	54.4939	4226073	44428.0547	993.2646	993.26	2.015469291	
	1494.6001	2118.7266	485.2605	54.0726	4366164.5	44428.0547	970.521	970.52	1.966109938	
	1494.75	2117.3677	486.0175	50.3508	4356576	44428.0547	972.035	972.04	2.033302946	
	1494.9	2112.1597	488.9651	48.9791	4319710	44428.0547	977.9302	977.93	1.955566233	
	1495.05	2096.2109	498.0159	50.7518	4209125	44428.0547	996.0318	996.03	2.086766372	
	1495.2001	2097.0063	497.6032	50.1725	4214214	44428.0547	995.2064	995.21	1.984723247	
	1495.3501	2104.8999	493.0705	53.19	4268963	44428.0547	986.141	986.14	1.951368167	
	1495.5	2093.6248	499.4767	55.1313	4191656.5	44428.0547	998.9534	998.95	1.962863603	
	1495.65	2095.3335	498.5552	55.0057	4202812.5	44428.0547	997.1104	997.11	2.029772726	
	1495.8	2084.2241	504.8514	58.5611	4128443.75	44428.0547	1009.7028	1009.7	1.965114698	
	1495.9501	2089.573	501.7913	58.9747	4164246.5	44428.0547	1003.5826	1003.58	2.056709782	
	1496.1001	2096.9019	497.6591	55.6679	4213562.5	44428.0547	995.3182	995.32	2.008469786	
	1496.25	2092.0962	500.379	56.1185	4181047.5	44428.0547	1000.758	1000.76	2.016660403	
	1496.4	2083.6953	505.1399	57.4239	4125044.25	44428.0547	1010.2798	1010.28	2.09438412	
	1496.55	2072.1279	511.7205	57.9093	4049460.25	44428.0547	1023.441	1023.44	2.089993238	
	1496.7001	2055.8188	520.9891	53.0948	3946246.25	44428.0547	1041.9782	1041.98	1.956830716	
	1496.8501	2054.0564	521.9855	47.7716	3935084.25	44428.0547	1043.971	1043.97	1.906945238	
	1497	2068.0723	514.0405	48.7012	4023462.25	44428.0547	1028.081	1028.08	1.94758753	
	1497.15	2072.7129	511.4081	50.7108	4052957.25	44428.0547	1022.8162	1022.82	2.068476131	
	1497.3	2064.209	516.2058	49.4162	3998959	28745.3184	1032.4116	1032.41	1.984535136	
	1497.4501	2069.1511	513.4198	49.5558	4030245	19529.1445	1026.8396	1026.84	2.003541762	
	1497.6001	2067.4199	514.3975	53.8078	4019143	18077.1484	1028.795	1028.8	1.95548031	
	1497.75	2072.7141	511.3855	52.0329	4053240	18077.1484	1022.771	1022.77	2.089984397	
	1497.9	2074.3462	510.4586	51.1271	4063692.75	18077.1484	1020.9172	1020.92	1.914285844	
	1498.05	2072.4739	511.5345	52.0314	4051492.25	18077.1484	1023.069	1023.07	2.050014412	
	1498.2001	2069.1626	513.3903	52.0052	4030410.25	18077.1484	1026.7806	1026.78	2.080159397	
	1498.3501	2068.408	513.8245	52.3638	4025515.25	18077.1484	1027.649	1027.65	1.906341276	
	1498.5	2074.5439	510.3531	51.8175	4065048.75	18077.1484	1020.7062	1020.71	1.993178771	
	1498.65	2073.2659	511.0813	52.7555	4056700.25	18077.1484	1022.1626	1022.16	2.069591912	
	1498.8	2072.2783	511.6172	49.593	4050456	18077.1484	1023.2344	1023.23	1.977523891	
	1498.9501	2077.0879	508.8902	46.0246	4081675.25	18077.1484	1017.7804	1017.78	2.066364994	
	1499.1001	2076.3574	509.329	45.7084	4076704.25	18077.1484	1018.658	1018.66	2.007881058	
	1499.25	2076.1741	509.4253	47.2393	4075543.25	18077.1484	1018.8506	1018.85	2.095860492	
	1499.4	2079.4148	507.5817	49.6683	4096728	18077.1484	1015.1634	1015.16	2.076063531	
	1499.55	2083.4792	505.2798	49.2807	4123461.5	18077.1484	1010.5596	1010.56	1.977571612	
	1499.7001	2079.4548	507.5722	48.9088	4097116	18077.1484	1015.1444	1015.14	2.000449334	
	1499.8501	2078.5305	508.096	48.715	4090961.25	18077.1484	1016.192	1016.19	1.943025424	
	1500	2079	507.8046	48.885	4094193	18077.1484	1015.6092	1015.61	1.931481643	
	1500.15	2079.0466	507.7777	51.6149	4094510.5	18077.1484	1015.5554	1015.56	1.915235259	
	1500.3	2078.7966	507.9287	54.6104	4092840.5	18077.1484	1015.8574	1015.86	1.949269197	
	1500.4501	2078.8127	507.8993	56.5912	4093167.75	18077.1484	1015.7986	1015.8	1.986892841	
	1500.6001	2084.3799	504.7348	54.8882	4129653.75	18077.1484	1009.4696	1009.47	2.062097057	
	1500.75	2081.0327	506.6519	52.8134	4107517.25	18077.1484	1013.3038	1013.3	1.960347923	
	1500.9	2079.5259	507.5069	54.9144	4097612.25	18077.1484	1015.0138	1015.01	2.085119828	
	1501.05	2081.6021	506.3133	55.9276	4111334.25	18077.1484	1012.6266	1012.63	1.951518135	
	1501.2001	2075.9856	509.5099	54.7906	4074559.75	7641.5205	1019.0198	1019.02	2.020352039	
	1501.3501	2074.1592	510.566	51.3301	4062554.25	-9896.5684	1021.132	1021.13	1.955595355	
	1501.5	2076.0449	509.4911	47.7523	4074840.25	-9952.8086	1018.9822	1018.98	1.977661464	
	1501.65	2071.1289	512.2689	47.845	4043051.25	-9952.8086	1024.5378	1024.54	1.922284093	
	1501.8	2074.7595	510.1962	47.3334	4066755.25	-9952.8086	1020.3924	1020.39	1.983616788	
	1501.9501	2082.458	505.8298	48.5672	4116919.5	-9952.8086	1011.6596	1011.66	1.929410823	
