~VERSION	INFORMATION									
	VERS.	2	:	CWLS	LOG	ASCII	STANDARD	-	VERSION	2
	WRAP.	NO	:	ONE	LINE	PER	DEPTH	STEP		
#										
~Well	Information	Section								
#MNEM	.UNIT	DATA	DESCRIPTION							
#-----	-----	--------	--------------							
	STRT	.M	30	:	START	DEPTH				
	STOP	.M	2140	:	END	DEPTH				
	STEP	.M	0.15	:	INCREMENT	DEPTH				
	NULL	.	-999.25	:	NULL	VALUE				
	COMP	.	:							
	WELL	.	F03-2	:	WELL	NAME				
	EKB	.M	30	:	KELLY	BUSHING	ELEVATION			
	EGL	.M	0	:	GROUND	LEVEL	ELEVATION			
	EPD	.M	0	:	PERMANENT	DATUM	ELEVATION			
	FLD	.	:							
	LOC	.	X	=	619101	Y	=	6089491.0000:	WELL	LOCATION
	PROV	.	:							
	SRVC	.	:							
	PROV	.	:							
	DATE	.	:							
	API	.	:							
#										
~Curve	Information	Section								
#MNEM	.UNIT	Curve	#DESCRIPTION							
#-----	-----	----	--------------							
	DEPTH	.M	:	1	DEPTH					
	RHOB	.kg/m3	:	2	Density					
	DT	.us/m	:	3	Sonic					
	GR	.API	:	4	Gamma	Ray				
	AI	.(m/s)*(kg/m3)	:	5	P-Impedance					
	AI_rel	.(m/s)*(kg/m3)	:	6	P-Impedance_rel					
	DTS	.us/m	:	3	Shear	Delta	Time			
	PHIE	.fraction	:	7	Porositykouh					
~A	(ASCII	LOG	DATA)							
	676.05	2131.5015	477.9857	46.9694	4459341	141210.8281	955.9714	955.97	2.01696271	
	676.2	2135.2	475.8976	45.52	4486679	141210.8281	951.7952	951.8	2.009900789	
	676.35	2154.4094	464.9474	44.2361	4633732.5	141210.8281	929.8948	929.89	2.06073596	
	676.5	2145.2266	470.1668	44.2487	4562721.5	141210.8281	940.3336	940.33	2.094689765	
	676.65	2166.8638	457.884	49.2202	4732606	140865.4219	915.768	915.77	1.932158897	
	676.8	2163.8049	459.6205	49.2479	4707821	132662.7656	919.241	919.24	1.922520542	
	676.95	2154.9421	464.6623	48.1809	4637713.5	132081.5625	929.3246	929.32	2.021043728	
	677.1	2141.4211	472.3602	46.6411	4533618.5	132081.5625	944.7204	944.72	2.037514962	
	677.25	2106.3882	492.2413	45.5045	4280376	132081.5625	984.4826	984.48	2.05377133	
	677.4	2108.5125	491.034	45.9433	4294076	132081.5625	982.068	982.07	2.011121945	
	677.55	2112.4019	488.8235	46.8835	4321412	132081.5625	977.647	977.65	2.035733094	
	677.7	2130.4656	478.582	47.4166	4452123	132081.5625	957.164	957.16	1.967717783	
	677.85	2148.2354	468.4952	45.2263	4585814.5	132081.5625	936.9904	936.99	1.929581558	
	678	2173.9868	453.8599	46.2143	4791225.5	132081.5625	907.7198	907.72	1.925441046	
	678.15	2190.2583	444.6246	50.512	4926428	132081.5625	889.2492	889.25	2.059695239	
	678.3	2182.7593	448.8664	56.0502	4863166	132081.5625	897.7328	897.73	1.976071882	
	678.45	2182.2849	449.1259	59.2075	4858982.5	132081.5625	898.2518	898.25	1.963015579	
	678.6	2184.802	447.6906	58.8872	4880172	132081.5625	895.3812	895.38	1.925698314	
	678.75	2173.1152	454.3222	56.869	4783788	132081.5625	908.6444	908.64	2.030515434	
	678.9	2154.0132	465.1848	56.3996	4631287	132081.5625	930.3696	930.37	1.93082668	
	679.05	2148.6936	468.2115	57.9059	4589154.5	132081.5625	936.423	936.42	2.009004597	
	679.2	2150.4961	467.187	57.479	4603084	132081.5625	934.374	934.37	2.006587965	
	679.35	2154.5015	464.905	55.2632	4634337.5	132081.5625	929.81	929.81	1.904729759	
	679.5	2171.1394	455.4573	53.3064	4768169.5	132081.5625	910.9146	910.91	1.949267829	
	679.65	2178.4856	451.3108	52.5696	4827023	132081.5625	902.6216	902.62	2.020335666	
	679.8	2172.6011	454.6577	52.9033	4778729	132081.5625	909.3154	909.32	2.092516738	
	679.95	2167.2188	457.7041	54.3046	4735004.5	132081.5625	915.4082	915.41	1.975094523	
	680.1	2165.3779	458.7612	56.0637	4720057	132081.5625	917.5224	917.52	1.975152269	
	680.25	2172.3704	454.7863	57.0451	4777108.5	132081.5625	909.5726	909.57	2.055211084	
	680.4	2175.4302	453.0215	57.7977	4802102	132081.5625	906.043	906.04	2.09367187	
	680.55	2177.5701	451.791	58.1212	4820027	132081.5625	903.582	903.58	2.005267711	
	680.7	2172.2493	454.8306	57.87	4776728.5	132081.5625	909.6612	909.66	1.910432131	
	680.85	2161.1499	461.1494	57.96	4686515.5	132081.5625	922.2988	922.3	2.036578568	
	681	2158.2053	462.8141	56.4614	4663224	113691.9844	925.6282	925.63	2.06850112	
	681.15	2157.7666	463.0734	54.2214	4659665.5	83983.2734	926.1468	926.15	2.024558556	
	681.3	2164.8486	459.0667	54.3415	4716407.5	72188.0469	918.1334	918.13	2.040952289	
	681.45	2173.6121	454.0873	55.7374	4786771.5	72188.0469	908.1746	908.17	1.981164602	
	681.6	2171.5249	455.2669	55.3791	4769838.5	72188.0469	910.5338	910.53	1.939316077	
	681.75	2168.0273	457.2342	53.7744	4741621.5	72188.0469	914.4684	914.47	1.938453138	
	681.9	2165.9714	458.3894	54.0035	4725192	72188.0469	916.7788	916.78	1.904099183	
	682.05	2163.9771	459.5226	55.0644	4709189.5	72188.0469	919.0452	919.05	1.924099382	
	682.2	2156.1482	463.9727	57.0576	4647966	72188.0469	927.9454	927.95	1.984831494	
	682.35	2139.8887	473.2308	57.9623	4522140.5	72188.0469	946.4616	946.46	2.084948495	
	682.5	2130.8291	478.3949	56.2688	4454161.5	72188.0469	956.7898	956.79	2.013204481	
	682.65	2126.0208	481.1167	54.9098	4418990.5	72188.0469	962.2334	962.23	2.076044339	
	682.8	2124.7612	481.8106	56.2171	4410107.5	72188.0469	963.6212	963.62	2.028983784	
	682.95	2133.5002	476.8516	55.3699	4474240.5	72188.0469	953.7032	953.7	1.939447674	
	683.1	2140.7227	472.7298	53.5823	4528514	72188.0469	945.4596	945.46	1.968427796	
	683.25	2149.1309	467.9532	55.0297	4592919.5	72188.0469	935.9064	935.91	1.999330868	
	683.4	2157.5498	463.1891	56.2155	4658102	72188.0469	926.3782	926.38	2.015390831	
	683.55	2147.3672	468.9892	56.2555	4579629.5	72188.0469	937.9784	937.98	2.010667599	
	683.7	2129.3013	479.2211	57.0167	4443304	72188.0469	958.4422	958.44	1.952609561	
	683.85	2134.9651	476.0296	59.2274	4484972	72188.0469	952.0592	952.06	2.083852154	
	684	2139.7678	473.2866	58.9764	4521116.5	72188.0469	946.5732	946.57	2.010651773	
	684.15	2146.4792	469.4714	58.0614	4572429	72188.0469	938.9428	938.94	1.966967996	
	684.3	2159.1792	462.251	58.1452	4671089	72188.0469	924.502	924.5	2.08932775	
	684.45	2148.7664	468.1748	56.1665	4590326.5	72188.0469	936.3496	936.35	2.010475449	
	684.6	2125.96	481.1589	51.4777	4418417	72188.0469	962.3178	962.32	1.920673363	
	684.75	2127.9028	480.0392	48.1254	4432791.5	72188.0469	960.0784	960.08	2.086042325	
	684.9	2134.2476	476.4521	52.0168	4479597	72188.0469	952.9042	952.9	2.0977867	
	685.05	2150.377	467.274	54.1591	4602334.5	72188.0469	934.548	934.55	1.90056535	
	685.2	2176.0815	452.6559	55.5853	4807389	71236.9141	905.3118	905.31	1.965993648	
	685.35	2168.5183	456.9669	52.1018	4745460.5	48280.9688	913.9338	913.93	2.082059021	
	685.5	2169.4253	456.4635	50.2534	4752682	33751.6953	912.927	912.93	2.082465419	
	685.65	2173.3	454.2408	49.25	4784466.5	33751.6953	908.4816	908.48	2.063232308	
	685.8	2158.3965	462.6936	52.6057	4664879	33751.6953	925.3872	925.39	2.080168049	
	685.95	2162.9705	460.124	55.8822	4700848.5	33751.6953	920.248	920.25	1.996196441	
	686.1	2152.9226	465.7996	57.2182	4622034	33751.6953	931.5992	931.6	2.049674451	
	686.25	2138.3975	474.0946	58.7555	4510604	33751.6953	948.1892	948.19	2.07887644	
	686.4	2132.4956	477.4393	56.2458	4466544.5	33751.6953	954.8786	954.88	1.991500561	
	686.55	2146.0652	469.7372	56.1035	4568833.5	33751.6953	939.4744	939.47	2.039758097	
	686.7	2139.8137	473.2613	57.9422	4521485	33751.6953	946.5226	946.52	2.047619162	
	686.85	2142.8599	471.5221	57.2888	4544578.5	33751.6953	943.0442	943.04	1.964414037	
	687	2153.897	465.2781	55.5525	4629435	33751.6953	930.5562	930.56	2.072556726	
	687.15	2146.9646	469.2177	54.3672	4575752	33751.6953	938.4354	938.44	2.092135903	
	687.3	2151.8481	466.4287	56.7545	4613538	33751.6953	932.8574	932.86	2.065608702	
	687.45	2150.0271	467.471	57.0378	4599295	33751.6953	934.942	934.94	2.046551517	
	687.6	2141.8577	472.113	56.5319	4536875	33751.6953	944.226	944.23	2.063739153	
	687.75	2140.312	472.9804	55.7724	4525160.5	33751.6953	945.9608	945.96	1.921145338	
	687.9	2145.9983	469.7608	53.6344	4568365.5	33751.6953	939.5216	939.52	1.99284841	
	688.05	2139.7075	473.3103	51.6581	4520924	33751.6953	946.6206	946.62	1.921347875	
	688.2	2146.1677	469.6627	49.4738	4569872	33751.6953	939.3254	939.33	1.956984142	
	688.35	2141.939	472.0609	47.417	4537623.5	33751.6953	944.1218	944.12	1.971334703	
	688.5	2145.1604	470.2465	49.1561	4561926.5	33751.6953	940.493	940.49	1.943990544	
	688.65	2150.0662	467.4319	51.7744	4599765.5	33751.6953	934.8638	934.86	1.953176927	
	688.8	2142.3647	471.8147	51.6665	4541044	33751.6953	943.6294	943.63	2.033519355	
	688.95	2150.8767	466.9741	52.6453	4606812.5	33751.6953	933.9482	933.95	2.058282536	
	689.1	2157.3801	463.2929	56.2378	4656623.5	33751.6953	926.5858	926.59	2.078560803	
	689.25	2146.9036	469.235	57.2818	4575928.5	33751.6953	938.47	938.47	2.066338425	
	689.4	2149.092	467.9928	57.9166	4592582.5	33751.6953	935.9856	935.99	2.021876391	
	689.55	2150.9014	466.966	59.6361	4606210	35389.5273	933.932	933.93	2.076979631	
	689.7	2146.4075	469.5089	60.1075	4571625.5	37755.6562	939.0178	939.02	2.095410079	
	689.85	2155.644	464.2527	60.0525	4644108.5	38658.6797	928.5054	928.51	1.99098432	
	690	2161.7856	460.7591	59.0458	4691833	38658.6797	921.5182	921.52	1.925848358	
	690.15	2161.6912	460.8142	58.4804	4691054	38658.6797	921.6284	921.63	1.96129604	
	690.3	2159.9543	461.8095	59.1695	4677261.5	38658.6797	923.619	923.62	2.04195883	
	690.45	2153.2935	465.6028	59.9837	4624856.5	38658.6797	931.2056	931.21	2.078619318	
