~VERSION	INFORMATION									
	VERS.	2	:	CWLS	LOG	ASCII	STANDARD	-	VERSION	2
	WRAP.	NO	:	ONE	LINE	PER	DEPTH	STEP		
#										
~Well	Information	Section								
#MNEM	.UNIT	DATA	DESCRIPTION							
#-----	-----	--------	--------------							
	STRT	.M	30	:	START	DEPTH				
	STOP	.M	2140	:	END	DEPTH				
	STEP	.M	0.15	:	INCREMENT	DEPTH				
	NULL	.	-999.25	:	NULL	VALUE				
	COMP	.	:							
	WELL	.	F03-2	:	WELL	NAME				
	EKB	.M	30	:	KELLY	BUSHING	ELEVATION			
	EGL	.M	0	:	GROUND	LEVEL	ELEVATION			
	EPD	.M	0	:	PERMANENT	DATUM	ELEVATION			
	FLD	.	:							
	LOC	.	X	=	619101	Y	=	6089491.0000:	WELL	LOCATION
	PROV	.	:							
	SRVC	.	:							
	PROV	.	:							
	DATE	.	:							
	API	.	:							
#										
~Curve	Information	Section								
#MNEM	.UNIT	Curve	#DESCRIPTION							
#-----	-----	----	--------------							
	DEPTH	.M	:	1	DEPTH					
	RHOB	.kg/m3	:	2	Density					
	DT	.us/m	:	3	Sonic					
	GR	.API	:	4	Gamma	Ray				
	AI	.(m/s)*(kg/m3)	:	5	P-Impedance					
	AI_rel	.(m/s)*(kg/m3)	:	6	P-Impedance_rel					
	DTS	.us/m	:	3	Shear	Delta	Time			
	PHIE	.fraction	:	7	Porositykouh					
~A	(ASCII	LOG	DATA)							
# ...
	734.25	2112.4453	488.8278	50.2572	4321655.5	-12287.0654	977.6556	977.66	1.968662622	
	734.4	2113.1047	488.4259	52.954	4326362.5	-12287.0654	976.8518	976.85	2.043991943	
	734.55	2125.364	481.4907	55.4661	4414318.5	-12287.0654	962.9814	962.98	2.023164613	
	734.7	2149.561	467.7556	56.2865	4596266	-12287.0654	935.5112	935.51	2.023218016	
	734.85	2162.9773	460.1305	55.2695	4700961.5	-12287.0654	920.261	920.26	1.962455981	
	735	2173.2471	454.2965	51.1645	4783922.5	-12287.0654	908.593	908.59	2.074917648	
	735.15	2171.7117	455.1689	46.5425	4771250.5	-12287.0654	910.3378	910.34	1.949405818	
	735.3	2161.8516	460.7406	46.4268	4692340	-12287.0654	921.4812	921.48	1.964602746	
	735.45	2153.2876	465.622	47.1042	4624646	-12287.0654	931.244	931.24	1.904360725	
	735.6	2151.6519	466.5397	47.43	4611937.5	-12287.0654	933.0794	933.08	1.925627902	
	735.75	2142.8159	471.567	47.9416	4544289.5	-12287.0654	943.134	943.13	2.080637426	
	735.9	2142.3159	471.8596	46.1454	4540179	-12287.0654	943.7192	943.72	1.992531451	
	736.05	2134.1787	476.491	46.3646	4479257	-12287.0654	952.982	952.98	1.948397995	
	736.2	2130.5388	478.5595	45.4284	4451983	-12287.0654	957.119	957.12	1.98323632	
	736.35	2130.3279	478.643	45.2345	4450766	-12287.0654	957.286	957.29	1.977744635	
	736.5	2139.7722	473.2676	47.1892	4521697.5	-3564.8577	946.5352	946.54	2.093811331	
	736.65	2160.6775	461.4193	49.0186	4684020	6047.4614	922.8386	922.84	2.085211466	
	736.8	2169.3999	456.4832	49.4385	4752419.5	8843.708	912.9664	912.97	2.095364102	
	736.95	2166.9451	457.8643	50.7771	4732760.5	8843.708	915.7286	915.73	2.055991942	
	737.1	2156.8188	463.5944	51.788	4652856	8843.708	927.1888	927.19	2.055767982	
	737.25	2153.7678	465.3286	52.0714	4628536	8843.708	930.6572	930.66	1.998861573	
	737.4	2157.7402	463.0905	51.9493	4659465.5	8843.708	926.181	926.18	1.942846911	
	737.55	2156.238	463.9429	51.1157	4647710.5	8843.708	927.8858	927.89	2.026624753	
	737.7	2157.4885	463.2266	49.8163	4657644	8843.708	926.4532	926.45	2.077205325	
	737.85	2155.3364	464.4496	48.6092	4640888	8843.708	928.8992	928.9	2.058997726	
	738	2146.3984	469.5244	47.6898	4571573	8843.708	939.0488	939.05	1.961330247	
	738.15	2139.0454	473.707	47.367	4515660	8843.708	947.414	947.41	2.064071362	
	738.3	2133.4851	476.8556	48.1993	4474106.5	8843.708	953.7112	953.71	2.094378146	
	738.45	2130.6653	478.4372	48.1495	4453389.5	8843.708	956.8744	956.87	2.045919204	
	738.6	2135.8425	475.5013	47.3597	4492170	8843.708	951.0026	951	2.079754431	
	738.75	2137.3096	474.6843	48.4418	4503052	8843.708	949.3686	949.37	2.020860149	
	738.9	2129.6731	479.0313	50.6598	4445798.5	8843.708	958.0626	958.06	1.944516169	
	739.05	2133.8564	476.6548	51.1922	4476864.5	8843.708	953.3096	953.31	2.05778019	
	739.2	2140.7175	472.7567	49.3847	4528222.5	8843.708	945.5134	945.51	2.077228302	
	739.35	2146.4043	469.5118	49.7368	4571653.5	8843.708	939.0236	939.02	2.085214445	
	739.5	2151.5889	466.5659	49.7487	4611565	8843.708	933.1318	933.13	2.098849319	
	739.65	2148.6692	468.2345	49.3559	4589363	8843.708	936.469	936.47	2.031389658	
	739.8	2138.9136	473.7942	49.9474	4514444	8843.708	947.5884	947.59	2.079559783	
	739.95	2143.9683	470.8965	49.2396	4553251	8843.708	941.793	941.79	2.036799039	
	740.1	2149.6885	467.6427	49.5356	4597094	8843.708	935.2854	935.29	2.019149937	
	740.25	2143.4944	471.1656	51.6198	4549429	8843.708	942.3312	942.33	2.051373952	
	740.4	2150.1807	467.3523	48.6888	4600842.5	8843.708	934.7046	934.7	1.929990579	
	740.55	2152.5938	465.9944	46.9672	4619542	8843.708	931.9888	931.99	2.070236805	
	740.7	2143.3975	471.2332	49.0573	4548519.5	12847.9199	942.4664	942.47	2.059470243	
	740.85	2143.7432	471.0198	50.6816	4551889	29735.0117	942.0396	942.04	2.089404	
	741	2159.5581	462.0428	49.0241	4673940.5	38189.7266	924.0856	924.09	1.963017584	
	741.15	2159.251	462.2379	50.1668	4671374	38189.7266	924.4758	924.48	2.086575668	
	741.3	2167.3213	457.6614	50.5183	4735839	38189.7266	915.3228	915.32	1.996676143	
	741.45	2178.2339	451.4569	48.2006	4824906	38189.7266	902.9138	902.91	1.981767837	
	741.6	2180.6409	450.1006	51.32	4844790	38189.7266	900.2012	900.2	1.993409958	
	741.75	2182.3198	449.1361	51.313	4858928	38189.7266	898.2722	898.27	2.044436482	
	741.9	2181.2188	449.7385	51.2093	4849987.5	38189.7266	899.477	899.48	1.962447576	
	742.05	2176.0254	452.6854	50.5444	4807122	38189.7266	905.3708	905.37	1.961808498	
	742.2	2159.3054	462.2003	46.98	4671822.5	38189.7266	924.4006	924.4	1.994884875	
	742.35	2152.1589	466.2444	41.8924	4615949.5	38189.7266	932.4888	932.49	1.940209964	
	742.5	2148.9993	468.0395	43.4229	4591509.5	38189.7266	936.079	936.08	1.965245136	
	742.65	2158.7168	462.5308	45.5424	4667194.5	38189.7266	925.0616	925.06	1.942301709	
	742.8	2146.8	469.3005	47.33	4574467.5	38189.7266	938.601	938.6	2.084869392	
	742.95	2157.9526	462.9755	48.5242	4661067	38189.7266	925.951	925.95	1.914401519	
	743.1	2157.8079	463.0642	49.1241	4659846	38189.7266	926.1284	926.13	1.918143636	
	743.25	2159.7202	461.9355	47.1622	4675373.5	38189.7266	923.871	923.87	2.006799776	
	743.4	2169.3899	456.463	48.3023	4752667.5	38189.7266	912.926	912.93	2.01424651	
	743.55	2168.1465	457.1655	47.8054	4742587.5	38189.7266	914.331	914.33	1.935586412	
	743.7	2158.4785	462.6463	47.2159	4665596.5	38189.7266	925.2926	925.29	1.959652849	
	743.85	2142.0439	471.974	47.1064	4538743.5	38189.7266	943.948	943.95	1.94952739	
	744	2154.8137	464.7646	45.1897	4636625.5	38189.7266	929.5292	929.53	2.066024441	
	744.15	2153.5317	465.4674	46.8737	4626617	38189.7266	930.9348	930.93	2.059330671	
	744.3	2146.5627	469.4449	48.2996	4572625.5	38189.7266	938.8898	938.89	1.930435365	
	744.45	2159.2114	462.2355	45.1175	4671621.5	38189.7266	924.471	924.47	1.966196916	
	744.6	2159.823	461.8965	44.4669	4676000.5	38189.7266	923.793	923.79	2.024126534	
	744.75	2150.6582	467.1199	44.8321	4604259.5	38189.7266	934.2398	934.24	2.03099508	
	744.9	2152.5557	466.0148	45.4269	4619116	38189.7266	932.0296	932.03	1.970092766	
	745.05	2159.9885	461.7875	46.9657	4677568	41116.4258	923.575	923.58	2.043634547	
	745.2	2172.804	454.5107	49.8098	4780943	52403.3906	909.0214	909.02	2.020351304	
	745.35	2176.5	452.4274	51.7596	4810717	55927.7109	904.8548	904.85	2.004379683	
	745.5	2174.844	453.3751	52.9764	4797019.5	55927.7109	906.7502	906.75	2.07747463	
	745.65	2166.7781	457.9539	52.7019	4731669.5	55927.7109	915.9078	915.91	2.080283051	
	745.8	2149.4531	467.8034	51.571	4595644.5	55927.7109	935.6068	935.61	1.9060957	
	745.95	2140.3984	472.9446	51.4435	4525715.5	55927.7109	945.8892	945.89	2.018547431	
	746.1	2140.1455	473.0672	51.7695	4523983	55927.7109	946.1344	946.13	1.96008161	
	746.25	2141.9165	472.0708	51.4411	4537285	55927.7109	944.1416	944.14	2.044471754	
	746.4	2147.5601	468.8706	49.898	4580423	55927.7109	937.7412	937.74	1.969274921	
	746.55	2144.8335	470.4023	49.7313	4559769.5	55927.7109	940.8046	940.8	2.039845689	
	746.7	2144.7388	470.4484	49.6118	4559010	55927.7109	940.8968	940.9	1.950533453	
	746.85	2141.7356	472.1658	50.7085	4536193.5	55927.7109	944.3316	944.33	1.911964512	
	747	2151.9929	466.3483	55.7986	4616095	55927.7109	932.6966	932.7	1.943283097	
	747.15	2162.6519	460.306	57.1355	4698295	55927.7109	920.612	920.61	2.031044629	
	747.3	2162.5215	460.3676	55.0573	4697382	55927.7109	920.7352	920.74	2.057119307	
	747.45	2166.5991	458.0367	54.6663	4730319.5	55927.7109	916.0734	916.07	2.084883063	
	747.6	2165.5613	458.6452	52.5097	4721870.5	55927.7109	917.2904	917.29	2.085953426	
	747.75	2152.9238	465.8255	48.8745	4622372.5	55927.7109	931.651	931.65	1.963319966	
	747.9	2141.8232	472.1134	47.8127	4536741.5	55927.7109	944.2268	944.23	1.966602348	
	748.05	2138.0398	474.2534	49.1263	4508228.5	55927.7109	948.5068	948.51	1.980991979	
	748.2	2142.01	472.005	50.8974	4538401.5	55927.7109	944.01	944.01	1.939967186	
	748.35	2157.1975	463.387	50.4064	4656301.5	55927.7109	926.774	926.77	1.921447687	
	748.5	2169.2	456.554	47.8679	4751245.5	55927.7109	913.108	913.11	2.001726537	
	748.65	2163.998	459.5059	46.1542	4709790	55927.7109	919.0118	919.01	1.922461415	
	748.8	2148.8074	468.1433	44.3114	4590892.5	55927.7109	936.2866	936.29	2.060644651	
