~VERSION	INFORMATION									
	VERS.	2	:	CWLS	LOG	ASCII	STANDARD	-	VERSION	2
	WRAP.	NO	:	ONE	LINE	PER	DEPTH	STEP		
#										
~Well	Information	Section								
#MNEM	.UNIT	DATA	DESCRIPTION							
#-----	-----	--------	--------------							
	STRT	.M	30	:	START	DEPTH				
	STOP	.M	2140	:	END	DEPTH				
	STEP	.M	0.15	:	INCREMENT	DEPTH				
	NULL	.	-999.25	:	NULL	VALUE				
	COMP	.	:							
	WELL	.	F03-2	:	WELL	NAME				
	EKB	.M	30	:	KELLY	BUSHING	ELEVATION			
	EGL	.M	0	:	GROUND	LEVEL	ELEVATION			
	EPD	.M	0	:	PERMANENT	DATUM	ELEVATION			
	FLD	.	:							
	LOC	.	X	=	619101	Y	=	6089491.0000:	WELL	LOCATION
	PROV	.	:							
	SRVC	.	:							
	PROV	.	:							
	DATE	.	:							
	API	.	:							
#										
~Curve	Information	Section								
#MNEM	.UNIT	Curve	#DESCRIPTION							
#-----	-----	----	--------------							
	DEPTH	.M	:	1	DEPTH					
	RHOB	.kg/m3	:	2	Density					
	DT	.us/m	:	3	Sonic					
	GR	.API	:	4	Gamma	Ray				
	AI	.(m/s)*(kg/m3)	:	5	P-Impedance					
	AI_rel	.(m/s)*(kg/m3)	:	6	P-Impedance_rel					
	DTS	.us/m	:	3	Shear	Delta	Time			
	PHIE	.fraction	:	7	Porositykouh					
~A	(ASCII	LOG	DATA)							
# ...
	1432.05	2175.3062	453.0846	48.1886	4801192	140817.9062	906.1692	906.17	2.029882659	
	1432.2001	2180.9722	449.8903	49.3696	4847863	140817.9062	899.7806	899.78	1.996221232	
	1432.3501	2176.6658	452.3485	51.4693	4812200.5	140817.9062	904.697	904.7	2.019986495	
	1432.5	2158.8198	462.478	52.1875	4669221.5	140817.9062	924.956	924.96	2.0837978	
	1432.65	2140.8823	472.6599	54.5742	4529903.5	140817.9062	945.3198	945.32	2.097201589	
	1432.8	2127.0754	480.4953	57.3882	4427233	140817.9062	960.9906	960.99	2.059903141	
	1432.9501	2117.8042	485.774	56.6467	4359727.5	140817.9062	971.548	971.55	1.918518754	
	1433.1001	2113.9983	487.949	56.1587	4332424	140817.9062	975.898	975.9	1.979961357	
	1433.25	2108.4326	491.0923	57.1344	4293522	140817.9062	982.1846	982.18	1.953852998	
	1433.4	2100.3005	495.7045	56.9271	4237107	140817.9062	991.409	991.41	2.093112443	
	1433.55	2099.3364	496.2559	57.1205	4230414.5	86839.8828	992.5118	992.51	1.907765941	
	1433.7001	2101.5171	495.011	56.9321	4245400	27957.5977	990.022	990.02	2.031896977	
	1433.8501	2097.3779	497.3767	56.7901	4216980.5	27464.0527	994.7534	994.75	2.011163398	
	1434	2097.3257	497.4107	56.7028	4216650.5	27464.0527	994.8214	994.82	2.083344442	
	1434.15	2101.4426	495.0561	54.1912	4244872.5	27464.0527	990.1122	990.11	2.016036379	
	1434.3	2099.0793	496.4016	53.3122	4228597.5	27464.0527	992.8032	992.8	2.012964123	
	1434.4501	2097.5049	497.3087	52.8151	4217716	27464.0527	994.6174	994.62	1.942316912	
	1434.6001	2093.1772	499.7651	52.2533	4188483	27464.0527	999.5302	999.53	1.968228174	
	1434.75	2085.0532	504.3602	52.9005	4134115.75	27464.0527	1008.7204	1008.72	1.93822562	
	1434.9	2083.969	504.9936	52.6742	4126839.5	27464.0527	1009.9872	1009.99	2.067703381	
	1435.05	2085.8132	503.9264	54.1662	4139337.75	27464.0527	1007.8528	1007.85	1.90291135	
	1435.2001	2079.1108	507.7469	53.4004	4094798.75	27464.0527	1015.4938	1015.49	1.952656459	
	1435.3501	2083.6245	505.2088	54.4155	4124353	27464.0527	1010.4176	1010.42	1.990987291	
	1435.5	2086.6104	503.506	53.7397	4144227.5	27464.0527	1007.012	1007.01	1.939329168	
	1435.65	2084.9644	504.4305	52.4338	4133542.5	27464.0527	1008.861	1008.86	1.935810164	
	1435.8	2093.4958	499.5581	52.8727	4190725.25	27464.0527	999.1162	999.12	2.04954979	
	1435.9501	2092.0947	500.368	51.6145	4181231	27464.0527	1000.736	1000.74	2.085325767	
	1436.1001	2100.2676	495.752	52.1366	4236547	27464.0527	991.504	991.5	2.054953026	
	1436.25	2102.9761	494.1994	50.4336	4255320.5	27464.0527	988.3988	988.4	2.063424864	
	1436.4	2102.052	494.7129	51.4136	4249034.5	27464.0527	989.4258	989.43	1.981603518	
	1436.55	2100.5527	495.5719	52.7458	4238768	27464.0527	991.1438	991.14	1.969386435	
	1436.7001	2092.5823	500.0867	51.0223	4184504	27464.0527	1000.1734	1000.17	1.946069738	
	1436.8501	2098.6196	496.6782	51.5482	4225384.5	27464.0527	993.3564	993.36	2.077189193	
	1437	2091.364	500.7703	50.0772	4176342.25	27464.0527	1001.5406	1001.54	1.984946572	
	1437.15	2097.5798	497.251	54.2726	4218429.5	27464.0527	994.502	994.5	1.993148712	
	1437.3	2088.5215	502.3803	56.9568	4157310.75	27464.0527	1004.7606	1004.76	1.93201536	
	1437.4501	2097.8879	497.0805	56.1742	4220419	23097.2832	994.161	994.16	2.05141825	
	1437.6001	2097.6531	497.2028	53.4555	4218909	-46408.7188	994.4056	994.41	1.996297943	
	1437.75	2096.4553	497.8979	53.9472	4210630	-73644.5391	995.7958	995.8	2.06041047	
	1437.9	2087.5405	502.9649	53.0838	4150472	-73644.5391	1005.9298	1005.93	1.965325702	
	1438.05	2083.3	505.3947	50.5	4122125	-73644.5391	1010.7894	1010.79	2.026687103	
	1438.2001	2079.5	507.498	49.18	4097553	-73644.5391	1014.996	1015	1.984843712	
	1438.3501	2083.4219	505.3235	50.8566	4122949.25	-73644.5391	1010.647	1010.65	2.069345773	
	1438.5	2083.3066	505.3766	53.4827	4122285.25	-73644.5391	1010.7532	1010.75	1.925688814	
	1438.65	2086.9905	503.2824	54.327	4146764	-73644.5391	1006.5648	1006.56	1.934536329	
	1438.8	2092.333	500.2289	55.2473	4182766	-73644.5391	1000.4578	1000.46	2.0403667	
	1438.9501	2095.645	498.357	57.0769	4205114	-73644.5391	996.714	996.71	1.981337313	
	1439.1001	2092.3872	500.2014	55.6537	4183099.5	-73644.5391	1000.4028	1000.4	2.042395126	
	1439.25	2097.592	497.2641	53.8912	4218296	-73644.5391	994.5282	994.53	2.061454271	
	1439.4	2091.8875	500.4726	56.9483	4179872.25	-73644.5391	1000.9452	1000.95	2.071044398	
	1439.55	2097.5576	497.2447	59.3363	4218420	-73644.5391	994.4894	994.49	1.964783141	
	1439.7001	2096.5986	497.7961	57.6007	4211768	-73644.5391	995.5922	995.59	1.930803854	
	1439.8501	2091.689	500.6024	57.6283	4178378.75	-73644.5391	1001.2048	1001.2	1.973647761	
	1440	2091.1843	500.9058	54.8874	4174806	-73644.5391	1001.8116	1001.81	2.030620612	
	1440.15	2095.1553	498.6213	53.5963	4201929	-73644.5391	997.2426	997.24	1.907827152	
	1440.3	2101.5393	494.9883	52.2616	4245699.5	-73644.5391	989.9766	989.98	1.9661511	
	1440.4501	2095.9563	498.1658	53.8655	4207473	-73644.5391	996.3316	996.33	1.918971345	
	1440.6001	2100.2158	495.7489	57.3159	4236567.5	-73644.5391	991.4978	991.5	1.935152444	
	1440.75	2097.3369	497.4057	55.0376	4216631.5	-73644.5391	994.8114	994.81	1.983763006	
	1440.9	2097.4507	497.3207	54.2979	4217515.5	-73644.5391	994.6414	994.64	2.045704098	
	1441.05	2103.1528	494.0998	55.8518	4256615	-73644.5391	988.1996	988.2	1.920450388	
	1441.2001	2104.4839	493.3546	59.4022	4265664	-73644.5391	986.7092	986.71	1.946985886	
	1441.3501	2101.5232	495.0243	60.79	4245320.5	-73644.5391	990.0486	990.05	2.04505292	
	1441.5	2097.8694	497.1104	58.673	4220152	-59788.3945	994.2208	994.22	1.982190171	
	1441.65	2095.9734	498.1819	57.6641	4207247.5	-34577.8711	996.3638	996.36	1.956230458	
	1441.8	2098.4221	496.7718	56.5107	4224156.5	-24048.4609	993.5436	993.54	2.069216195	
	1441.9501	2103.6829	493.7737	54.9554	4260483.5	-24048.4609	987.5474	987.55	1.934484618	
	1442.1001	2106.2905	492.3042	52.3544	4278433	-24048.4609	984.6084	984.61	1.984566075	
	1442.25	2102.9292	494.2052	48.889	4255251	-24048.4609	988.4104	988.41	2.024072419	
	1442.4	2095.9897	498.1593	47.5212	4207585	-24048.4609	996.3186	996.32	2.009215089	
	1442.55	2090.5251	501.2878	48.9591	4170335	-24048.4609	1002.5756	1002.58	2.01577814	
	1442.7001	2096.7153	497.7634	49.6513	4212723.5	-24048.4609	995.5268	995.53	2.069067548	
	1442.8501	2100.5474	495.571	49.4302	4238733.5	-24048.4609	991.142	991.14	1.937668852	
	1443	2102.4565	494.4879	50.5652	4252025	-24048.4609	988.9758	988.98	2.011846281	
	1443.15	2109.501	490.4951	50.4845	4300777	-24048.4609	980.9902	980.99	2.058694188	
	1443.3	2104.8457	493.1305	49.706	4268709.5	-24048.4609	986.261	986.26	1.90815154	
	1443.4501	2099.2368	496.3159	50.8099	4229675.5	-24048.4609	992.6318	992.63	1.988383428	
	1443.6001	2103.635	493.8252	52.9314	4259920	-24048.4609	987.6504	987.65	2.050442832	
	1443.75	2103.7756	493.7255	54.6775	4261096	-24048.4609	987.451	987.45	1.943211049	
	1443.9	2097.5879	497.2284	54.1222	4218639	-24048.4609	994.4568	994.46	1.958725658	
	1444.05	2096.2517	498.0028	53.8762	4209408	-24048.4609	996.0056	996.01	2.088216591	
	1444.2001	2103.043	494.15	54.6928	4255958	-24048.4609	988.3	988.3	1.962686121	
	1444.3501	2105.2566	492.8718	53.3106	4271466.5	-24048.4609	985.7436	985.74	2.072779046	
	1444.5	2103.9165	493.6435	50.1453	4262111.5	-24048.4609	987.287	987.29	2.019752056	
	1444.65	2106.2007	492.3646	50.8099	4277857	-24048.4609	984.7292	984.73	2.05685647	
	1444.8	2098.8369	496.5492	48.9622	4226876.5	-24048.4609	993.0984	993.1	2.017837913	
	1444.9501	2097.4841	497.3321	45.4929	4217529	-24048.4609	994.6642	994.66	1.998408582	
	1445.1001	2103.5444	493.8905	40.7025	4259200.5	-24048.4609	987.781	987.78	2.077223152	
	1445.25	2110.0298	490.1944	38.4469	4304534.5	-24048.4609	980.3888	980.39	2.014574344	
	1445.4	2116.1077	486.7247	40.4572	4347703	-24048.4609	973.4494	973.45	2.056443741	
	1445.55	2122.8259	482.9179	45.4285	4395948	-11249.2754	965.8358	965.84	1.91176477	
	1445.7001	2129.5796	479.0914	48.2485	4445042	37328.1719	958.1828	958.18	2.035549161	
	1445.8501	2124.272	482.1176	50.3489	4406747	43585.7578	964.2352	964.24	1.958997023	
	1446	2107.8364	491.437	48.0101	4289266.5	43585.7578	982.874	982.87	1.964064986	
