~VERSION	INFORMATION									
	VERS.	2	:	CWLS	LOG	ASCII	STANDARD	-	VERSION	2
	WRAP.	NO	:	ONE	LINE	PER	DEPTH	STEP		
#										
~Well	Information	Section								
#MNEM	.UNIT	DATA	DESCRIPTION							
#-----	-----	--------	--------------							
	STRT	.M	30	:	START	DEPTH				
	STOP	.M	2140	:	END	DEPTH				
	STEP	.M	0.15	:	INCREMENT	DEPTH				
	NULL	.	-999.25	:	NULL	VALUE				
	COMP	.	:							
	WELL	.	F03-2	:	WELL	NAME				
	EKB	.M	30	:	KELLY	BUSHING	ELEVATION			
	EGL	.M	0	:	GROUND	LEVEL	ELEVATION			
	EPD	.M	0	:	PERMANENT	DATUM	ELEVATION			
	FLD	.	:							
	LOC	.	X	=	619101	Y	=	6089491.0000:	WELL	LOCATION
	PROV	.	:							
	SRVC	.	:							
	PROV	.	:							
	DATE	.	:							
	API	.	:							
#										
~Curve	Information	Section								
#MNEM	.UNIT	Curve	#DESCRIPTION							
#-----	-----	----	--------------							
	DEPTH	.M	:	1	DEPTH					
	RHOB	.kg/m3	:	2	Density					
	DT	.us/m	:	3	Sonic					
	GR	.API	:	4	Gamma	Ray				
	AI	.(m/s)*(kg/m3)	:	5	P-Impedance					
	AI_rel	.(m/s)*(kg/m3)	:	6	P-Impedance_rel					
	DTS	.us/m	:	3	Shear	Delta	Time			
	PHIE	.fraction	:	7	Porositykouh					
~A	(ASCII	LOG	DATA)							
# ...
	1278.3	2102.4885	494.473	62.7838	4253304	-82549.5391	988.946	988.95	2.051271057	
	1278.4501	2101.5315	495.0002	61.9809	4245599	-82549.5391	990.0004	990	2.031546263	
	1278.6001	2101.4326	495.0646	60.2121	4244774.5	-82549.5391	990.1292	990.13	2.018758103	
	1278.75	2091.8486	500.5098	60.6986	4179659.5	-82549.5391	1001.0196	1001.02	1.936460348	
	1278.9	2082.2629	505.9587	60.7084	4115596.25	-82549.5391	1011.9174	1011.92	2.073527379	
	1279.05	2075.8767	509.5967	61.6389	4073615.5	-82549.5391	1019.1934	1019.19	2.025994777	
	1279.2001	2072.7578	511.3581	59.0028	4053443.5	-82549.5391	1022.7162	1022.72	2.002471966	
	1279.3501	2076.3032	509.3473	58.5441	4076463.75	-82549.5391	1018.6946	1018.69	2.066188285	
	1279.5	2094.9438	498.7586	59.7982	4201427.5	-82549.5391	997.5172	997.52	2.065887486	
	1279.65	2100.1782	495.7824	60.3061	4236143.5	-82549.5391	991.5648	991.56	2.046826681	
	1279.8	2094.418	499.0694	61.3272	4196715.5	-82549.5391	998.1388	998.14	1.968690583	
	1279.9501	2094.8921	498.7934	60.9306	4199959	-57139.6484	997.5868	997.59	2.071599187	
	1280.1001	2103.7495	493.7561	58.6627	4260982.5	21104.8301	987.5122	987.51	2.070783114	
	1280.25	2098.2512	496.8717	59.3629	4223557	64496.7031	993.7434	993.74	2.012525873	
	1280.4	2081.3752	506.4413	60.4893	4110288.75	64496.7031	1012.8826	1012.88	1.950261742	
	1280.55	2078.5762	508.0257	61.2725	4091597.25	64496.7031	1016.0514	1016.05	2.064077791	
	1280.7001	2076.9746	508.9474	60.7239	4081108	64496.7031	1017.8948	1017.89	1.994558407	
	1280.8501	2074.6331	510.2819	59.561	4065702.5	64496.7031	1020.5638	1020.56	1.988535986	
	1281	2078.1843	508.2565	57.5771	4088860.5	64496.7031	1016.513	1016.51	2.067238613	
	1281.15	2067.2544	514.4713	56.651	4019338.25	64496.7031	1028.9426	1028.94	1.928481236	
	1281.3	2055.6199	521.0934	58.9063	3944838.25	64496.7031	1042.1868	1042.19	1.904183381	
	1281.4501	2053.5137	522.2794	60.2823	3931954	64496.7031	1044.5588	1044.56	2.027335096	
	1281.6001	2047.1196	525.8975	61.6849	3892643.75	64496.7031	1051.795	1051.8	2.003464124	
	1281.75	2053.5217	522.2838	63.0766	3932503.5	64496.7031	1044.5676	1044.57	2.05850695	
	1281.9	2071.0042	512.3721	64.8476	4042307.5	64496.7031	1024.7442	1024.74	1.972428743	
	1282.05	2082.1018	506.0617	69.3425	4114432.5	64496.7031	1012.1234	1012.12	1.981079746	
	1282.2001	2089.532	501.8475	72.9074	4163764	64496.7031	1003.695	1003.69	2.009930067	
	1282.3501	2094.7686	498.8553	74.4205	4199161.5	64496.7031	997.7106	997.71	1.982844967	
	1282.5	2094.1296	499.2072	73.6523	4194991	64496.7031	998.4144	998.41	2.047078366	
	1282.65	2084.2917	504.8106	71.1936	4129300.5	64496.7031	1009.6212	1009.62	2.030873897	
	1282.8	2081.8572	506.1768	66.9046	4114275	64496.7031	1012.3536	1012.35	1.907499407	
	1282.9501	2098.2778	496.8626	62.8015	4223399	64496.7031	993.7252	993.73	2.026169564	
	1283.1001	2090.1487	501.4938	63.4358	4167961.5	64496.7031	1002.9876	1002.99	1.906990654	
	1283.25	2101.3359	495.1371	65.913	4244475.5	64496.7031	990.2742	990.27	1.908200292	
	1283.4	2118.5645	485.3541	69.1645	4365273	64496.7031	970.7082	970.71	1.903875622	
	1283.55	2123.3435	482.6369	72.4102	4400380	64496.7031	965.2738	965.27	2.091455796	
	1283.7001	2101.3347	495.1317	74.9757	4244157.5	64496.7031	990.2634	990.26	2.054508499	
	1283.8501	2092.8616	499.9148	78.2024	4186447	78003.625	999.8296	999.83	2.075579826	
	1284	2098.0925	496.9398	81.4736	4222319	168923.6406	993.8796	993.88	2.037288081	
	1284.15	2113.7722	488.0474	81.238	4331326	322617.4062	976.0948	976.09	1.968232683	
	1284.3	2128.1033	479.9044	76.0234	4434627	322617.4062	959.8088	959.81	1.947737709	
	1284.4501	2140.79	472.6947	72.2074	4528968.5	322617.4062	945.3894	945.39	2.093608819	
	1284.6001	2146.7944	469.2811	73.7808	4574695.5	322617.4062	938.5622	938.56	1.923750173	
	1284.75	2141.3081	472.4348	77.3168	4532626	322617.4062	944.8696	944.87	1.924186235	
	1284.9	2153.5237	465.4564	71.8401	4626722	322617.4062	930.9128	930.91	2.084137907	
	1285.05	2159.6084	462.0206	69.224	4674271	322617.4062	924.0412	924.04	2.060894907	
	1285.2001	2161.0547	461.1816	67.7017	4685920.5	322617.4062	922.3632	922.36	1.979041002	
	1285.3501	2155.5024	464.346	70.4388	4642135	322617.4062	928.692	928.69	2.000778992	
	1285.5	2134.6406	476.1975	73.2285	4482693.5	322617.4062	952.395	952.39	2.056393791	
	1285.65	2145.2998	470.1306	74.63	4563200	322617.4062	940.2612	940.26	2.040131829	
	1285.8	2162.3	460.5039	73.12	4695508.5	322617.4062	921.0078	921.01	2.0704704	
	1285.9501	2163.7708	459.6383	69.3648	4707552	322617.4062	919.2766	919.28	2.07780293	
	1286.1001	2174.0552	453.8303	69.8511	4790494	322617.4062	907.6606	907.66	1.995709773	
	1286.25	2194.762	442.0637	66.7352	4965060	322617.4062	884.1274	884.13	2.053786013	
	1286.4	2195.4333	441.6481	68.1279	4971000.5	322617.4062	883.2962	883.3	1.984138707	
	1286.55	2192.7312	443.219	63.0957	4947293.5	322617.4062	886.438	886.44	1.985822102	
	1286.7001	2170.342	455.9388	63.7219	4760722	322617.4062	911.8776	911.88	1.989333688	
	1286.8501	2171.3586	455.3498	66.3322	4768566.5	322617.4062	910.6996	910.7	1.921921186	
	1287	2160.2654	461.6512	67.656	4679633.5	322617.4062	923.3024	923.3	1.964444526	
	1287.15	2180.8628	449.9416	64.5922	4847876	322617.4062	899.8832	899.88	1.974686222	
	1287.3	2177.8076	451.6878	67.2508	4821584	322617.4062	903.3756	903.38	1.998384386	
	1287.4501	2184.0457	448.1616	71.1079	4873475.5	322617.4062	896.3232	896.32	1.984777774	
	1287.6001	2187.96	445.9097	72.9904	4906747	322617.4062	891.8194	891.82	2.006498388	
	1287.75	2186.6887	446.6449	74.8134	4895820.5	322617.4062	893.2898	893.29	2.05687065	
	1287.9	2172.209	454.8667	73.6454	4776076.5	322617.4062	909.7334	909.73	2.091015066	
	1288.05	2162.0203	460.6691	70.4137	4693333.5	322617.4062	921.3382	921.34	2.055608069	
	1288.2001	2171.1326	455.4955	66.9188	4766959	322617.4062	910.991	910.99	1.927514371	
	1288.3501	2183.5835	448.4266	65.9855	4869725	381192.2188	896.8532	896.85	1.983798611	
	1288.5	2192.1721	443.5393	60.9826	4942585	422113.9062	887.0786	887.08	1.994272913	
	1288.65	2207.8491	434.622	59.0902	5080857	429982.6875	869.244	869.24	1.926862079	
	1288.8	2206.7256	435.2566	59.6938	5070216	429982.6875	870.5132	870.51	2.085544242	
	1288.9501	2209.2141	433.8316	60.5743	5092536	429982.6875	867.6632	867.66	2.011665284	
	1289.1001	2205.6021	435.8746	58.3772	5060451.5	429982.6875	871.7492	871.75	2.087012686	
	1289.25	2198.614	439.8511	59.3953	4998619	429982.6875	879.7022	879.7	1.997615804	
	1289.4	2195.2502	441.7803	61.3169	4969112.5	429982.6875	883.5606	883.56	2.062422471	
	1289.55	2185.4529	447.3587	58.6876	4885809.5	429982.6875	894.7174	894.72	1.955086763	
	1289.7001	2173.1184	454.3639	57.4436	4783072	429982.6875	908.7278	908.73	1.986133886	
	1289.8501	2164.2466	459.3835	58.4761	4711332.5	429982.6875	918.767	918.77	2.093662943	
	1290	2157.8259	463.0153	60.3585	4660458	429982.6875	926.0306	926.03	1.994313059	
	1290.15	2154.0791	465.1474	64.3336	4630970.5	429982.6875	930.2948	930.29	2.022514771	
	1290.3	2158.5593	462.6146	67.2811	4666264.5	429982.6875	925.2292	925.23	1.992447092	
	1290.4501	2168.9543	456.7217	69.8116	4749249.5	429982.6875	913.4434	913.44	1.932509704	
	1290.6001	2181.2698	449.7195	72.951	4850830.5	429982.6875	899.439	899.44	1.903924578	
	1290.75	2187.7603	446.0244	74.3633	4905032	429982.6875	892.0488	892.05	1.995074513	
	1290.9	2185.7576	447.1661	72.7718	4888035.5	429982.6875	894.3322	894.33	2.042280228	
	1291.05	2173.0549	454.3791	71.0054	4784167.5	429982.6875	908.7582	908.76	2.018948467	
	1291.2001	2155.8918	464.1247	72.8131	4645159.5	429982.6875	928.2494	928.25	1.91607443	
	1291.3501	2160.7791	461.3517	75.1182	4684607.5	429982.6875	922.7034	922.7	2.080905162	
	1291.5	2174.8794	453.3397	74.2497	4797514	429982.6875	906.6794	906.68	1.959821691	
	1291.65	2173.3303	454.2135	71.9551	4785150.5	429982.6875	908.427	908.43	2.050600928	
	1291.8	2161.7827	460.78	74.2753	4691878.5	429982.6875	921.56	921.56	1.902364606	
	1291.9501	2148.3821	468.3876	77.1392	4587395.5	429982.6875	936.7752	936.78	2.0478298	
	1292.1001	2132.5823	477.3795	77.8174	4467603.5	429982.6875	954.759	954.76	1.962442524	
